,유치원명,대표자,원장,설립일자,설립유형,개원일자,담당행정기관,전화번호,홈페이지,운영시간,주소,제공서비스,3세반학급,4세반학급,5세반학급,3~4세반학급,4~5세반학급,3~5세반학급,특수/장애반학급,3세반학생수,4세반학생수,5세반학생수,3~4세반학생수,4~5세반학생수,3~5세반학생수,특수/장애반학생수,원장수,원감수,수석교사,보직교사,교사,특수교사,보건교사,영양교사,기간제교원,사무직원,수석교사.1,1급정교사,2급정교사,준교사,1년미만,1년이상2년미만,2년이상4년미만,4년이상6년미만,6년이상,평가(인증)년월,lat,lng,구별,총교사수,총학생수,비율
0,가람유치원,박민정,이형미,1986-11-27,사립(사인),1987-03-10,서울특별시교육청 / 강동송파교육지원청,02-427-3151,등록된 홈페이지가 없습니다.,09 : 00 ~ 19 : 00,서울특별시 강동구 상암로63길 39,['방과후과정'],0,2,3,0,0,0,0,0.0,62.0,95.0,0.0,0.0,0.0,0.0,1,0,0.0,0.0,8.0,0,0,0,0.0,5,0,2,6,6,3,5,0,0,0,2014년 10월,37.54822070000001,127.1538415,강동구,8.0,157.0,19.625
1,가명유치원,염수정,노현경,1956-04-15,사립(법인),1956-04-15,서울특별시교육청 / 중부교육지원청,02-362-7593,등록된 홈페이지가 없습니다.,09 : 00 ~ 14 : 00,서울특별시 중구 청파로 447-1,['해당없음'],1,1,1,0,0,0,0,22.0,28.0,28.0,0.0,0.0,0.0,0.0,1,0,0.0,0.0,3.0,0,0,0,0.0,6,0,0,3,3,2,0,1,0,0,2016년 09월,37.5589521,126.9670169,중구,3.0,78.0,26.0
2,강남유정유치원,"김지은, 박민정",박민정,2018-01-31,사립(사인),2018-03-01,서울특별시교육청 / 강남서초교육지원청,02-2226-9500,http://www.gnyujung.com,09 : 00 ~ 19 : 00,서울특별시 강남구 광평로34길 17,['방과후과정'],5,3,2,0,0,0,0,85.0,67.0,59.0,0.0,0.0,0.0,0.0,1,1,0.0,0.0,16.0,0,0,0,1.0,15,0,2,14,14,16,0,0,0,0,-,37.479582799999996,127.08854769999999,강남구,17.0,211.0,12.411764705882353
3,강남유치원,피영민,박춘옥,1985-02-01,사립(사인),1985-02-01,서울특별시교육청 / 강남서초교육지원청,02-546-1673,등록된 홈페이지가 없습니다.,09 : 00 ~ 17 : 30,서울특별시 강남구 선릉로129길 31,['방과후과정'],1,1,2,0,0,0,0,29.0,31.0,66.0,0.0,0.0,0.0,0.0,1,1,0.0,0.0,8.0,0,0,0,0.0,8,0,2,6,6,3,2,1,1,2,2016년 09월,37.5154476,127.0390091,강남구,8.0,126.0,15.75
4,강남유치원,정지건,이성미,1971-03-30,사립(사인),1971-03-30,서울특별시교육청 / 동작관악교육지원청,02-813-7122,등록된 홈페이지가 없습니다.,08 : 50 ~ 18 : 30,서울특별시 동작구 상도로41가길 13,['방과후과정'],1,1,1,0,0,0,0,24.0,17.0,23.0,0.0,0.0,0.0,0.0,1,0,0.0,0.0,6.0,0,0,0,0.0,0,0,1,4,4,1,3,1,1,0,2016년 10월,37.503502399999995,126.94967859999998,동작구,6.0,64.0,10.666666666666666
5,강동유정유치원,김지은,백혜진,2012-11-09,사립(사인),2013-03-01,서울특별시교육청 / 강동송파교육지원청,428-4466,등록된 홈페이지가 없습니다.,09 : 00 ~ 19 : 00,서울특별시 강동구 상일로10길 41,['방과후과정'],5,6,5,0,0,0,0,100.0,160.0,140.0,0.0,0.0,0.0,0.0,1,1,0.0,0.0,23.0,0,0,1,0.0,19,0,5,18,18,11,6,4,3,0,2014년 11월,37.550585399999996,127.1749825,강동구,23.0,400.0,17.391304347826086
6,강변유치원,장병일,장연주,1979-03-09,사립(법인),1979-03-09,서울특별시교육청 / 중부교육지원청,02-792-2652,등록된 홈페이지가 없습니다.,09 : 00 ~ 17 : 00,서울특별시 용산구 이촌로84길 9-7,['방과후과정'],1,1,1,0,0,0,0,21.0,13.0,26.0,0.0,0.0,0.0,0.0,1,0,0.0,0.0,5.0,0,0,0,0.0,0,0,1,4,4,1,1,2,1,0,2015년 10월,37.51833570000001,126.977232,용산구,5.0,60.0,12.0
7,강서유치원,박향순,박향순,1982-10-06,사립(사인),1982-10-06,서울특별시교육청 / 강서양천교육지원청,02-2602-5225,등록된 홈페이지가 없습니다.,09 : 00 ~ 20 : 00,서울특별시 강서구 까치산로 116,['방과후과정'],1,3,3,0,0,0,0,13.0,58.0,79.0,0.0,0.0,0.0,0.0,1,0,0.0,0.0,12.0,0,0,0,0.0,7,0,3,8,8,3,1,3,4,1,2016년 09월,37.5481774,126.85003909999999,강서구,12.0,150.0,12.5
8,강일늘사랑유치원,이복임,이복임,2012-12-04,사립(사인),2013-03-04,서울특별시교육청 / 강동송파교육지원청,02-3426-8700,http://alwayslove.co.kr,09 : 00 ~ 19 : 30,서울특별시 강동구 아리수로98길 62,['방과후과정'],3,3,4,0,0,0,0,62.0,66.0,96.0,0.0,0.0,0.0,0.0,1,0,0.0,0.0,16.0,0,0,0,8.0,0,0,1,15,15,4,0,8,4,0,2014년 11월,37.5645516,127.1778999,강동구,24.0,224.0,9.333333333333334
9,개동유치원,재단법인예수교대한성결교회유지재단,이정현,1999-12-28,사립(법인),1999-12-28,서울특별시교육청 / 성북강북교육지원청,02-915-5721,http://www.kaedong.kidone.com,09 : 00 ~ 17 : 00,서울특별시 성북구 보국문로 143,['방과후과정'],2,2,3,0,0,0,0,35.0,42.0,55.0,0.0,0.0,0.0,0.0,1,0,0.0,0.0,9.0,0,0,0,0.0,0,0,1,8,8,2,1,2,1,3,2016년 09월,37.615795500000004,127.0049727,성북구,9.0,132.0,14.666666666666666
10,개봉샛별유치원,권은희,권은희,1984-06-11,사립(법인),1984-06-11,서울특별시교육청 / 남부교육지원청,02-2615-8812,http://cafe.daum.net/gooddaddy,09 : 00 ~ 18 : 00,서울특별시 구로구 개봉로18길 11,['방과후과정'],1,1,1,0,0,0,0,19.0,25.0,24.0,0.0,0.0,0.0,0.0,1,1,0.0,0.0,5.0,0,0,0,0.0,2,0,1,4,4,2,3,0,0,0,2014년 01월,37.491626000000004,126.8568265,구로구,5.0,68.0,13.6
11,건영유치원,정 윤석,안 진아,1985-02-21,사립(법인),1985-02-21,서울특별시교육청 / 동작관악교육지원청,02-858-4130,http://www.gunykid.com,09 : 00 ~ 18 : 10,서울특별시 관악구 조원로 114,['방과후과정'],4,5,5,0,0,0,0,89.0,127.0,147.0,0.0,0.0,0.0,0.0,1,1,0.0,0.0,19.0,0,0,0,0.0,27,0,8,12,12,4,4,4,1,7,2017년 10월,37.484835700000005,126.9149082,관악구,19.0,363.0,19.105263157894736
12,"경기유치원
                  
                  	(폐원)",서신덕,이순화,1987-03-03,사립(사인),1987-03-03,서울특별시교육청 / 강남서초교육지원청,02-3411-8881,등록된 홈페이지가 없습니다.,09 : 00 ~ 20 : 00,서울특별시 강남구 삼성로 14,['방과후과정'],1,1,2,0,0,0,0,23.0,18.0,43.0,0.0,0.0,0.0,0.0,1,1,0.0,0.0,4.0,0,0,0,0.0,0,0,1,3,3,0,4,0,0,1,2012년 10월,37.48553709999999,127.0714351,강남구,4.0,84.0,21.0
13,경동유치원,김경신,김경신,2000-12-01,사립(사인),2000-12-01,서울특별시교육청 / 성동광진교육지원청,02-2298-2277,http://www.kdchild.com,09 : 00 ~ 18 : 00,서울특별시 성동구 금호로 100,['방과후과정'],2,2,2,0,0,0,0,48.0,78.0,58.0,0.0,0.0,0.0,0.0,1,1,0.0,1.0,13.0,0,0,0,0.0,2,0,3,11,11,2,4,5,0,3,2014년 10월,37.5542479,127.02575039999999,성동구,14.0,184.0,13.142857142857142
14,경복유치원,김덕옥,경복유치원,1996-04-22,사립(사인),1996-04-22,서울특별시교육청 / 서부교육지원청,02-396-8384,http://www.kyung-bok.co.kr,09 : 00 ~ 20 : 00,서울특별시 서대문구 세검정로1길 95,['방과후과정'],2,2,2,0,0,0,0,40.0,50.0,49.0,0.0,0.0,0.0,0.0,0,1,0.0,0.0,11.0,0,0,0,0.0,0,0,0,11,11,7,3,0,1,0,2016년 10월,37.59530529999999,126.9447195,서대문구,11.0,139.0,12.636363636363637
15,경성유치원,유광열,유광열,1993-05-23,사립(사인),1993-05-23,서울특별시교육청 / 강서양천교육지원청,02-2648-4997,등록된 홈페이지가 없습니다.,09 : 00 ~ 18 : 00,서울특별시 양천구 목동로3길 57,['방과후과정'],2,3,3,0,0,0,0,48.0,57.0,72.0,0.0,0.0,0.0,0.0,1,1,0.0,0.0,11.0,0,0,0,0.0,1,0,1,10,10,6,0,1,4,0,2016년 10월,37.5104441,126.8640104,양천구,11.0,177.0,16.09090909090909
16,경원유치원,송미정,김주리,1982-12-27,사립(사인),2002-03-01,서울특별시교육청 / 성동광진교육지원청,02-446-9777,등록된 홈페이지가 없습니다.,09 : 00 ~ 20 : 00,서울특별시 광진구 영화사로 89,['방과후과정'],1,1,1,0,0,0,0,23.0,31.0,32.0,0.0,0.0,0.0,0.0,1,1,0.0,1.0,5.0,0,0,0,0.0,3,0,0,6,6,2,2,2,0,0,2015년 09월,37.554856799999996,127.09607820000001,광진구,6.0,86.0,14.333333333333334
17,경은유치원,최한형,최희경,1982-12-27,사립(사인),1982-12-27,서울특별시교육청 / 성북강북교육지원청,02-993-2064,등록된 홈페이지가 없습니다.,09 : 00 ~ 18 : 30,서울특별시 강북구 노해로21길 12,['방과후과정'],1,2,1,0,0,0,0,7.0,29.0,22.0,0.0,0.0,0.0,0.0,1,0,0.0,0.0,5.0,0,0,0,0.0,2,0,0,5,5,2,1,0,0,2,2015년 09월,37.6440376,127.02225020000002,강북구,5.0,58.0,11.6
18,경하유치원,이명희,이명희,1983-03-02,사립(사인),1983-03-02,서울특별시교육청 / 성동광진교육지원청,02-466-2880,등록된 홈페이지가 없습니다.,09 : 00 ~ 20 : 00,서울특별시 광진구 동일로72길 9,"['방과후과정', '아침돌봄']",0,0,0,0,0,1,0,0.0,0.0,0.0,0.0,0.0,25.0,0.0,1,0,0.0,0.0,3.0,0,0,0,3.0,0,0,1,2,2,2,0,0,1,0,2017년 09월,37.5660474,127.07819840000002,광진구,6.0,25.0,4.166666666666667
19,경희유치원,윤경숙,윤경숙,1961-03-24,사립(법인),1961-03-24,서울특별시교육청 / 동부교육지원청,02-967-0907,http://www.khu.kg.kr,09 : 00 ~ 19 : 00,서울특별시 동대문구 경희대로 26,['방과후과정'],2,2,2,0,0,0,0,41.0,50.0,56.0,0.0,0.0,0.0,0.0,1,1,0.0,1.0,3.0,0,0,0,3.0,9,0,3,3,3,0,0,1,1,3,2014년 09월,37.5953632,127.05276119999999,동대문구,7.0,147.0,21.0
20,계상유치원,송은희,송은희,2002-10-11,사립(법인),2002-10-11,서울특별시교육청 / 강서양천교육지원청,02-2625-5608,http://kyesang.happyihome.com,09 : 00 ~ 20 : 00,서울특별시 양천구 남부순환로86길 22,['방과후과정'],2,3,2,0,0,0,0,39.0,58.0,54.0,0.0,0.0,0.0,0.0,1,1,0.0,0.0,10.0,0,0,1,2.0,3,0,5,5,5,5,1,3,1,2,2017년 09월,37.5124317,126.83981499999999,양천구,12.0,151.0,12.583333333333334
21,계성유치원,천주교쌘뽈수도원유지재단,배선희,1966-12-03,사립(법인),1967-03-09,서울특별시교육청 / 중부교육지원청,02-712-0826,http://www.gskg.kr,08 : 50 ~ 13 : 30,서울특별시 용산구 효창원로15길 15,['해당없음'],0,0,0,0,0,10,0,0.0,0.0,0.0,0.0,0.0,238.0,0.0,1,1,0.0,1.0,15.0,0,1,1,1.0,5,0,4,12,12,3,3,5,3,4,2015년 11월,37.5360594,126.9528915,용산구,17.0,238.0,14.0
22,고덕유치원,백은희,김진숙,2007-05-07,사립(법인),2007-05-07,서울특별시교육청 / 강동송파교육지원청,02-440-5302,등록된 홈페이지가 없습니다.,09 : 00 ~ 18 : 30,서울특별시 강동구 구천면로 645,['방과후과정'],1,2,1,0,0,0,0,21.0,38.0,28.0,0.0,0.0,0.0,0.0,1,0,0.0,0.0,4.0,0,0,0,2.0,1,0,2,4,4,1,1,0,0,2,2016년 09월,37.550831099999996,127.1690836,강동구,6.0,87.0,14.5
23,고덕한울유치원,이종영,박문선,2012-04-07,사립(사인),2012-04-09,서울특별시교육청 / 강동송파교육지원청,02-3427-3939,등록된 홈페이지가 없습니다.,09 : 00 ~ 18 : 00,서울특별시 강동구 양재대로 1706,['방과후과정'],2,2,1,0,0,0,0,40.0,42.0,37.0,0.0,0.0,0.0,0.0,1,0,0.0,0.0,9.0,0,0,0,0.0,0,0,0,9,9,0,3,3,1,2,2016년 11월,37.5578508,127.1459139,강동구,9.0,119.0,13.222222222222221
24,고운유치원,김은희,김은희,1992-12-03,사립(사인),1992-12-03,서울특별시교육청 / 북부교육지원청,02-948-6700,등록된 홈페이지가 없습니다.,09 : 00 ~ 22 : 00,서울특별시 노원구 동일로208길 34,"['방과후과정', '온종일돌봄']",3,3,3,0,0,0,0,63.0,51.0,72.0,0.0,0.0,0.0,0.0,1,1,0.0,0.0,17.0,0,0,0,0.0,0,0,5,12,12,9,3,1,1,5,2017년 05월,37.6562713,127.06240690000001,노원구,17.0,186.0,10.941176470588236
25,공능유치원,이도형,권명희,1983-10-21,사립(사인),1981-02-23,서울특별시교육청 / 북부교육지원청,02-972-0481,http://kongneungkids.ddorongi.co.kr,09 : 00 ~ 18 : 30,서울특별시 노원구 동일로186길 27,['방과후과정'],1,1,1,0,0,0,0,11.0,14.0,16.0,0.0,0.0,0.0,0.0,1,0,0.0,0.0,4.0,0,0,0,0.0,4,0,0,4,4,4,0,0,0,0,2016년 10월,37.62512279999999,127.07401540000001,노원구,4.0,41.0,10.25
26,공항제일유치원,고승현,이민영,1997-05-01,사립(사인),1997-05-01,서울특별시교육청 / 강서양천교육지원청,02-2662-3744,등록된 홈페이지가 없습니다.,09 : 00 ~ 20 : 00,서울특별시 강서구 개화동로23길 100,['방과후과정'],0,0,0,1,1,0,0,0.0,0.0,0.0,40.0,40.0,0.0,0.0,1,0,0.0,0.0,6.0,0,0,1,0.0,2,0,1,5,5,0,0,2,3,2,2016년 10월,37.5651879,126.8106632,강서구,6.0,80.0,13.333333333333334
27,광남유치원,목원균,김춘자,1991-02-09,사립(사인),1991-02-09,서울특별시교육청 / 성동광진교육지원청,02-455-6774,http://kwangnam.kidswon.com,09 : 00 ~ 19 : 00,서울특별시 광진구 아차산로70길 40,['방과후과정'],2,2,2,0,0,0,0,48.0,66.0,65.0,0.0,0.0,0.0,0.0,1,0,0.0,0.0,11.0,0,0,0,0.0,0,0,1,10,10,5,4,0,1,1,2017년 10월,37.540676399999995,127.098826,광진구,11.0,179.0,16.272727272727273
28,광영유치원,학교법인 광영학원,손영경,1995-03-02,사립(법인),1995-03-02,서울특별시교육청 / 강서양천교육지원청,02-2603-6235,등록된 홈페이지가 없습니다.,09 : 00 ~ 18 : 00,서울특별시 양천구 남부순환로30길 17,['방과후과정'],2,2,1,0,0,0,0,31.0,37.0,34.0,0.0,0.0,0.0,0.0,1,1,0.0,0.0,8.0,0,0,0,0.0,0,0,1,7,7,1,1,3,2,1,2016년 09월,37.53779,126.8241074,양천구,8.0,102.0,12.75
29,광운유치원,김미선,김미선,1967-03-01,사립(법인),1967-03-01,서울특별시교육청 / 성북강북교육지원청,02-915-0903,http://www.kwangwoon.or.kr,09 : 00 ~ 17 : 00,서울특별시 성북구 장월로42길 9,['방과후과정'],1,1,1,0,0,0,0,13.0,18.0,23.0,0.0,0.0,0.0,0.0,1,0,0.0,0.0,3.0,0,0,0,0.0,1,0,1,2,2,0,0,0,1,2,2014년 10월,37.619073799999995,127.05387179999998,성북구,3.0,54.0,18.0
30,광장유치원,홍성란,홍성란,1983-09-01,사립(법인),1983-09-01,서울특별시교육청 / 성동광진교육지원청,02-455-5016,등록된 홈페이지가 없습니다.,09 : 30 ~ 19 : 00,서울특별시 광진구 광장로7길 17,['방과후과정'],1,1,1,0,0,0,0,24.0,24.0,29.0,0.0,0.0,0.0,0.0,1,0,0.0,0.0,5.0,0,0,0,1.0,0,0,2,3,3,1,0,2,0,2,2015년 11월,37.5483874,127.1052041,광진구,6.0,77.0,12.833333333333334
31,구강사금강유치원,김영춘,박송란,2007-11-20,사립(법인),2008-03-03,서울특별시교육청 / 강동송파교육지원청,02-471-7792,등록된 홈페이지가 없습니다.,09 : 00 ~ 17 : 00,서울특별시 강동구 천중로 64,['방과후과정'],2,2,2,0,0,0,0,47.0,46.0,47.0,0.0,0.0,0.0,0.0,1,0,0.0,0.0,9.0,0,0,1,0.0,5,0,3,6,6,2,2,3,0,3,2016년 09월,37.544818400000004,127.1288199,강동구,9.0,140.0,15.555555555555555
32,구룡유치원,이정근,이경남,1994-03-01,사립(사인),1994-03-01,서울특별시교육청 / 강남서초교육지원청,02-577-1986,http://www.happyguryung.com/,09 : 00 ~ 19 : 00,서울특별시 서초구 논현로5길 31-11,['방과후과정'],1,1,2,0,0,0,0,26.0,30.0,55.0,0.0,0.0,0.0,0.0,1,0,0.0,1.0,5.0,0,0,1,3.0,6,0,1,5,5,1,3,1,0,2,2016년 10월,37.471176899999996,127.0489979,서초구,9.0,111.0,12.333333333333334
33,국제유치원,김영무,김애영,1990-09-05,사립(사인),1990-09-05,서울특별시교육청 / 강서양천교육지원청,02-3662-7404,등록된 홈페이지가 없습니다.,09 : 00 ~ 17 : 30,서울특별시 강서구 양천로30길 4,['방과후과정'],2,2,2,0,0,0,0,40.0,47.0,43.0,0.0,0.0,0.0,0.0,1,0,0.0,0.0,9.0,0,0,0,3.0,3,0,4,5,5,2,1,1,4,1,2015년 10월,37.5704783,126.8229382,강서구,12.0,130.0,10.833333333333334
34,굿프랜드유치원,허숙희,정은우,2014-09-05,사립(사인),2015-03-04,서울특별시교육청 / 남부교육지원청,02-847-3490,http://cafe.navet.com.gfkindergarten,09 : 00 ~ 17 : 00,서울특별시 영등포구 대방천로 180,['방과후과정'],2,2,2,0,0,0,0,38.0,25.0,50.0,0.0,0.0,0.0,0.0,1,0,0.0,0.0,10.0,0,0,1,1.0,2,0,0,10,10,3,6,2,0,0,2016년 09월,37.497986700000006,126.9109271,영등포구,11.0,113.0,10.272727272727273
35,궁전유치원,백금옥,백금옥,1997-02-14,사립(사인),1997-02-14,서울특별시교육청 / 서부교육지원청,02-383-1667,http://kj16667.happyihome.com,09 : 00 ~ 17 : 00,서울특별시 은평구 갈현로33길 24,"['방과후과정', '온종일돌봄']",1,1,1,0,0,0,0,10.0,7.0,20.0,0.0,0.0,0.0,0.0,1,0,0.0,0.0,5.0,0,0,0,0.0,0,0,0,5,5,2,0,1,0,2,2015년 10월,37.62201829999999,126.91416570000001,은평구,5.0,37.0,7.4
36,규전유치원,전봉옥,전봉옥,1985-03-30,사립(사인),1985-03-30,서울특별시교육청 / 동부교육지원청,02-961-7696,http://cafe.daum.net/gujeon,09 : 00 ~ 15 : 00,서울특별시 동대문구 휘경로 42,['방과후과정'],0,0,0,1,1,0,0,0.0,0.0,0.0,9.0,14.0,0.0,0.0,1,0,0.0,0.0,2.0,0,0,0,0.0,0,0,1,1,1,0,1,1,0,0,2016년 10월,37.5945001,127.06430309999999,동대문구,2.0,23.0,11.5
37,그리새유치원,최석명,박희경,1990-08-29,사립(사인),1996-05-15,서울특별시교육청 / 강동송파교육지원청,02-474-6800-1,등록된 홈페이지가 없습니다.,09 : 00 ~ 18 : 30,서울특별시 강동구 천호대로187길 53-18,['방과후과정'],1,1,2,0,0,0,0,20.0,25.0,42.0,0.0,0.0,0.0,0.0,1,0,0.0,0.0,6.0,0,0,0,0.0,5,0,0,6,6,4,0,2,0,0,2015년 10월,37.53705739999999,127.14195890000002,강동구,6.0,87.0,14.5
38,그림유치원,김창숙,김창숙,2000-11-30,사립(사인),2001-03-01,서울특별시교육청 / 동부교육지원청,02-3394-6254,http://cafe.naver.com/grimkid,09 : 00 ~ 19 : 00,서울특별시 동대문구 답십리로56길 21,['방과후과정'],2,4,3,0,0,0,0,31.0,60.0,62.0,0.0,0.0,0.0,0.0,1,1,0.0,1.0,13.0,0,0,0,9.0,2,0,2,12,12,6,2,3,1,2,2014년 10월,37.569807,127.060092,동대문구,23.0,153.0,6.6521739130434785
39,그림유치원,장세자,장세자,1988-01-25,사립(사인),2005-02-28,서울특별시교육청 / 강동송파교육지원청,02-403-0687,등록된 홈페이지가 없습니다.,09 : 00 ~ 19 : 00,서울특별시 송파구 동남로23나길 6,['방과후과정'],2,3,3,0,0,0,0,48.0,59.0,64.0,0.0,0.0,0.0,0.0,1,0,0.0,0.0,13.0,0,0,1,0.0,1,0,4,9,9,7,4,0,0,3,2015년 10월,37.50233370000001,127.1329827,송파구,13.0,171.0,13.153846153846153
40,근화유치원,염수정,남대레사,1954-04-05,사립(법인),1954-04-05,서울특별시교육청 / 중부교육지원청,02-2237-1684,http://guenhwa.com,09 : 00 ~ 17 : 20,서울특별시 중구 동호로20길 24,['방과후과정'],1,0,0,0,3,0,0,25.0,0.0,0.0,0.0,70.0,0.0,0.0,1,0,0.0,0.0,7.0,0,0,0,0.0,4,0,1,6,6,1,1,3,1,1,2016년 10월,37.559208700000006,127.009042,중구,7.0,95.0,13.571428571428571
41,근화유치원,한근화,이병옥,1986-06-01,사립(사인),1986-06-01,서울특별시교육청 / 강동송파교육지원청,02-481-1144,등록된 홈페이지가 없습니다.,09 : 00 ~ 18 : 00,서울특별시 강동구 고덕로 240,['방과후과정'],0,0,1,1,0,0,0,0.0,0.0,21.0,46.0,0.0,0.0,0.0,1,1,0.0,0.0,4.0,0,0,0,0.0,3,0,0,4,4,0,3,0,1,0,2016년 10월,37.5538859,127.1520017,강동구,4.0,67.0,16.75
43,"금빛유치원
                  
                  	(폐원)",-,-,1986-01-30,사립(사인),1986-01-30,서울특별시교육청 / 성동광진교육지원청,02-457-7740,등록된 홈페이지가 없습니다.,-,서울특별시 광진구 용마산로 107,['방과후과정'],0,0,0,0,0,0,0,0.0,0.0,0.0,0.0,0.0,0.0,0.0,1,0,0.0,0.0,4.0,0,0,0,0.0,0,0,0,4,4,-,-,-,-,-,2011년 07월,37.563149200000005,127.0867201,광진구,4.0,0.0,0.0
44,금성유치원,양혜숙,곽용택,1994-07-23,사립(사인),1994-07-23,서울특별시교육청 / 성북강북교육지원청,02-905-6638,등록된 홈페이지가 없습니다.,09 : 00 ~ 20 : 00,서울특별시 강북구 한천로123길 9,['방과후과정'],0,0,0,0,0,1,0,0.0,0.0,0.0,0.0,0.0,38.0,0.0,1,0,0.0,0.0,2.0,0,0,0,0.0,0,0,0,2,2,1,0,1,0,0,2016년 09월,37.6361617,127.03152859999999,강북구,2.0,38.0,19.0
45,"금잔디유치원
                  
                  	(폐원)",-,-,1968-02-01,사립(사인),1968-03-04,서울특별시교육청 / 성북강북교육지원청,02-914-6684,등록된 홈페이지가 없습니다.,-,서울특별시 성북구 솔샘로4길 20-4,['방과후과정'],0,0,0,0,0,0,0,0.0,0.0,0.0,0.0,0.0,0.0,0.0,1,0,0.0,0.0,6.0,0,0,1,6.0,0,0,0,6,6,-,-,-,-,-,2012년 10월,37.6083261,127.00583780000001,성북구,12.0,0.0,0.0
46,금호유치원,손미숙,손미숙,1991-06-12,사립(법인),1991-06-12,서울특별시교육청 / 성동광진교육지원청,02-2252-3179,http://www.keumhokids.co.kr,09 : 00 ~ 19 : 00,서울특별시 성동구 금호산2길 35,['방과후과정'],1,1,1,0,0,0,0,16.0,12.0,19.0,0.0,0.0,0.0,0.0,1,0,0.0,0.0,3.0,0,0,0,0.0,0,0,0,3,3,2,0,1,0,0,2016년 10월,37.548726200000004,127.0235509,성동구,3.0,47.0,15.666666666666666
47,기린유치원,이명숙,이명숙,1985-02-28,사립(사인),1985-03-15,서울특별시교육청 / 강동송파교육지원청,02-418-1750,등록된 홈페이지가 없습니다.,09 : 00 ~ 20 : 00,서울특별시 송파구 백제고분로41길 20,['방과후과정'],0,0,0,0,0,1,0,0.0,0.0,0.0,0.0,0.0,30.0,0.0,1,0,0.0,0.0,3.0,0,0,0,0.0,0,0,0,3,3,1,1,0,0,1,2016년 11월,37.507726500000004,127.10756950000001,송파구,3.0,30.0,10.0
48,까망유치원,육정희,육정희,1986-02-27,사립(사인),1986-02-27,서울특별시교육청 / 성북강북교육지원청,02-916-9213,https://www.kidsnote.com/까망유치원,09 : 00 ~ 20 : 00,서울특별시 성북구 장월로 102,['방과후과정'],0,0,1,1,0,0,0,0.0,0.0,20.0,16.0,0.0,0.0,0.0,1,0,0.0,0.0,2.0,0,0,0,1.0,1,0,0,2,2,2,0,0,0,0,2016년 09월,37.6148761,127.04851979999998,성북구,3.0,36.0,12.0
49,까치유치원,최희숙,이상진,1989-02-03,사립(사인),1989-02-03,서울특별시교육청 / 북부교육지원청,02-937-0331,등록된 홈페이지가 없습니다.,09 : 00 ~ 18 : 30,서울특별시 노원구 덕릉로79길 23,['방과후과정'],3,2,2,0,0,0,0,60.0,50.0,60.0,0.0,0.0,0.0,0.0,1,0,0.0,0.0,12.0,0,0,0,5.0,7,0,1,11,11,4,1,4,2,1,2016년 11월,37.6588489,127.07281529999999,노원구,17.0,170.0,10.0
50,꽃동산유치원,김종준,서인숙,2006-02-14,사립(법인),2006-02-14,서울특별시교육청 / 북부교육지원청,02-948-9483,http://www.flowergardenkids.com,09 : 00 ~ 18 : 00,서울특별시 노원구 공릉로 257,['방과후과정'],1,1,1,0,0,0,0,13.0,8.0,7.0,0.0,0.0,0.0,0.0,1,0,0.0,0.0,4.0,0,0,0,0.0,0,0,0,4,4,2,0,2,0,0,2013년 11월,37.6301266,127.07418440000001,노원구,4.0,28.0,7.0
51,꿀벌유치원,조윤희,조윤희,1998-03-04,사립(사인),2009-10-13,서울특별시교육청 / 강동송파교육지원청,02-3401-1752,등록된 홈페이지가 없습니다.,09 : 00 ~ 19 : 30,서울특별시 송파구 양산로8길 8,['방과후과정'],1,1,1,0,0,0,0,14.0,13.0,14.0,0.0,0.0,0.0,0.0,1,0,0.0,0.0,5.0,0,0,0,0.0,0,0,0,5,5,3,1,0,0,1,2017년 10월,37.4908734,127.1445037,송파구,5.0,41.0,8.2
52,꿀벌유치원,한국천주교살레시오회,이혜경,1980-07-01,사립(법인),1994-06-01,서울특별시교육청 / 남부교육지원청,02-857-8545,http://www.honeybees.or.kr,09 : 30 ~ 19 : 00,서울특별시 구로구 디지털로27다길 15,['방과후과정'],2,2,1,0,0,0,0,30.0,42.0,29.0,0.0,0.0,0.0,0.0,1,0,0.0,1.0,7.0,0,0,0,0.0,3,0,1,7,7,1,2,3,2,0,2015년 10월,37.4849354,126.8892781,구로구,8.0,101.0,12.625
53,꿈꾸는유치원,임성희,임성희,2016-01-29,사립(사인),2016-03-02,서울특별시교육청 / 성북강북교육지원청,02-981-0101,등록된 홈페이지가 없습니다.,09 : 00 ~ 19 : 00,서울특별시 강북구 오패산로30길 75,['방과후과정'],2,1,1,0,0,0,0,24.0,11.0,9.0,0.0,0.0,0.0,0.0,1,0,0.0,0.0,5.0,0,0,0,0.0,1,0,0,5,5,4,1,0,0,0,2016년 10월,37.616529,127.0350342,강북구,5.0,44.0,8.8
54,꿈꾸는유치원,"이영호, 박정숙",신연미,2017-03-06,사립(사인),2017-03-07,서울특별시교육청 / 강서양천교육지원청,02-2604-7890,등록된 홈페이지가 없습니다.,09 : 00 ~ 18 : 30,서울특별시 양천구 오목로4길 8,['방과후과정'],2,2,2,0,0,0,0,38.0,41.0,49.0,0.0,0.0,0.0,0.0,1,0,0.0,0.0,9.0,0,0,0,0.0,2,0,3,6,6,6,3,0,0,0,-,37.5208687,126.8401505,양천구,9.0,128.0,14.222222222222221
55,"꿈나라유치원
                  
                  	(폐원)",-,-,1986-03-27,사립(사인),1986-03-27,서울특별시교육청 / 강남서초교육지원청,02-3474-4633,등록된 홈페이지가 없습니다.,-,서울특별시 서초구 서운로 62,['방과후과정'],0,0,0,0,0,0,0,0.0,0.0,0.0,0.0,0.0,0.0,0.0,1,0,0.0,0.0,6.0,0,0,0,0.0,1,0,2,4,4,-,-,-,-,-,2013년 10월,37.4904344,127.02820590000002,서초구,6.0,0.0,0.0
56,꿈나라유치원,염명순,염명순,2008-06-16,사립(사인),2008-06-16,서울특별시교육청 / 동작관악교육지원청,02-851-5596,등록된 홈페이지가 없습니다.,08 : 30 ~ 17 : 00,서울특별시 관악구 난곡로 42,['방과후과정'],2,2,2,0,0,0,0,39.0,46.0,52.0,0.0,0.0,0.0,0.0,1,1,0.0,0.0,10.0,0,0,0,4.0,0,0,0,10,10,4,1,2,2,1,2015년 10월,37.4757204,126.9170692,관악구,14.0,137.0,9.785714285714286
57,꿈나무유치원,김지연,김지연,2012-03-27,사립(사인),2012-03-27,서울특별시교육청 / 강서양천교육지원청,02-2646-7701,등록된 홈페이지가 없습니다.,09 : 00 ~ 18 : 30,서울특별시 양천구 목동서로 280,['방과후과정'],2,3,2,0,0,0,0,48.0,72.0,57.0,0.0,0.0,0.0,0.0,1,1,0.0,0.0,15.0,0,0,0,0.0,10,0,3,12,12,7,4,2,2,0,2016년 11월,37.5216609,126.86765279999999,양천구,15.0,177.0,11.8
58,꿈동산유치원,고백희,김현미,1988-04-13,사립(사인),1988-05-02,서울특별시교육청 / 성북강북교육지원청,02-986-0577,등록된 홈페이지가 없습니다.,09 : 00 ~ 19 : 00,서울특별시 강북구 한천로115길 15,['방과후과정'],1,2,2,0,0,0,0,12.0,29.0,34.0,0.0,0.0,0.0,0.0,1,0,0.0,0.0,8.0,0,0,0,1.0,0,0,2,6,6,1,0,4,2,1,2016년 10월,37.6321131,127.0383199,강북구,9.0,75.0,8.333333333333334
59,꿈동산유치원,"이상민, 이우원",이인숙,1991-03-30,사립(사인),1991-03-30,서울특별시교육청 / 북부교육지원청,02-933-4686,http://www.kiddream.woobi.co.kr,09 : 10 ~ 19 : 10,서울특별시 노원구 동일로227길 26,['방과후과정'],4,3,3,0,0,0,0,95.0,79.0,72.0,0.0,0.0,0.0,0.0,1,1,0.0,0.0,16.0,0,0,0,0.0,19,0,2,14,14,3,1,6,3,3,2014년 6월,37.6686255,127.0533712,노원구,16.0,246.0,15.375
60,꿈모리유치원,김광세,윤미리,1983-03-29,사립(사인),1983-03-29,서울특별시교육청 / 북부교육지원청,02-978-0806,등록된 홈페이지가 없습니다.,09 : 00 ~ 19 : 00,서울특별시 노원구 공릉로58길 23,"['방과후과정', '아침돌봄']",1,0,0,0,1,0,0,8.0,0.0,0.0,0.0,21.0,0.0,0.0,1,0,0.0,0.0,2.0,0,0,0,0.0,1,0,0,2,2,1,0,0,1,1,2016년 10월,37.6337152,127.07243700000001,노원구,2.0,29.0,14.5
61,꿈밭유치원,양혜숙,원주연,1991-03-01,사립(사인),1993-08-01,서울특별시교육청 / 북부교육지원청,02-956-9380,https://kkumbat.happyihome.com,09 : 00 ~ 17 : 00,서울특별시 도봉구 해등로 264,"['방과후과정', '온종일돌봄']",2,2,2,0,0,0,0,34.0,40.0,36.0,0.0,0.0,0.0,0.0,1,1,0.0,0.0,11.0,0,0,0,0.0,0,0,2,9,9,5,3,2,1,0,2016년 09월,37.6575265,127.02601170000001,도봉구,11.0,110.0,10.0
62,꿈밭유치원,이용진,최소영,1988-09-05,사립(사인),1989-03-02,서울특별시교육청 / 강동송파교육지원청,02-413-4788,등록된 홈페이지가 없습니다.,09 : 30 ~ 14 : 00,서울특별시 송파구 올림픽로4길 32,['해당없음'],1,1,1,0,0,0,0,13.0,20.0,20.0,0.0,0.0,0.0,0.0,1,1,0.0,0.0,3.0,0,0,0,0.0,0,0,0,3,3,0,3,0,0,0,2015년 10월,37.5078319,127.07420390000001,송파구,3.0,53.0,17.666666666666668
63,꿈터유치원,박현중,이주영,1998-04-16,사립(사인),1998-04-16,서울특별시교육청 / 서부교육지원청,02-375-7123,http://www.dreamkid.org,09 : 30 ~ 20 : 00,서울특별시 마포구 새터산2길 34,['방과후과정'],1,1,1,0,0,0,0,10.0,14.0,17.0,0.0,0.0,0.0,0.0,1,0,0.0,0.0,3.0,0,0,0,0.0,1,0,0,3,3,1,0,1,0,2,2015년 10월,37.565309,126.90902520000002,마포구,3.0,41.0,13.666666666666666
64,꿈터유치원,최영애,최영애,2009-08-19,사립(사인),1992-03-01,서울특별시교육청 / 북부교육지원청,02-930-4202,http://www.ggumter.kr,09 : 00 ~ 19 : 00,서울특별시 노원구 동일로230길 63,['방과후과정'],1,2,2,0,0,0,0,30.0,39.0,51.0,0.0,0.0,0.0,0.0,1,0,0.0,0.0,7.0,0,0,0,0.0,3,0,1,6,6,2,2,2,0,1,2017년 10월,37.6728031,127.0590483,노원구,7.0,120.0,17.142857142857142
65,나나유치원,최현숙,최현숙,2016-02-24,사립(사인),2016-03-02,서울특별시교육청 / 강서양천교육지원청,02-2642-7300,등록된 홈페이지가 없습니다.,09 : 00 ~ 20 : 00,서울특별시 강서구 등촌로13바길 46,['방과후과정'],2,1,2,0,0,0,0,30.0,25.0,30.0,0.0,0.0,0.0,0.0,1,0,0.0,0.0,6.0,0,0,1,0.0,1,0,0,6,6,5,0,2,0,0,2016년 11월,37.53586060000001,126.85730339999999,강서구,6.0,85.0,14.166666666666666
66,나랑유치원,박수진,박수진,2000-12-14,사립(법인),2000-12-14,서울특별시교육청 / 동작관악교육지원청,02-3285-5555,http://www.narang.kg.kr,09 : 00 ~ 20 : 00,서울특별시 관악구 봉천로33길 57,['방과후과정'],2,2,1,0,0,0,0,43.0,40.0,27.0,0.0,0.0,0.0,0.0,1,1,0.0,0.0,8.0,0,0,0,0.0,5,0,2,6,6,2,2,2,2,0,2015년 09월,37.486744200000004,126.9453733,관악구,8.0,110.0,13.75
67,나래유치원,김정순,박지현,1985-03-18,사립(법인),1981-03-18,서울특별시교육청 / 성북강북교육지원청,02-913-3654,http://www.naraekids.com,09 : 00 ~ 20 : 00,서울특별시 성북구 숭인로2길 61,['방과후과정'],1,1,1,0,0,0,0,17.0,26.0,27.0,0.0,0.0,0.0,0.0,1,0,0.0,0.0,6.0,0,0,0,0.0,0,0,1,5,5,2,1,1,1,1,2015년 09월,37.6103878,127.02432309999999,성북구,6.0,70.0,11.666666666666666
68,나래유치원,김춘태,김청예,2000-11-29,사립(사인),2000-11-29,서울특별시교육청 / 북부교육지원청,02-3493-9236,http://www.나래유치원.com,09 : 30 ~ 18 : 00,서울특별시 도봉구 마들로 684-9,['방과후과정'],0,2,2,0,0,0,0,0.0,37.0,35.0,0.0,0.0,0.0,0.0,1,0,0.0,0.0,5.0,0,0,0,0.0,0,0,1,4,4,4,0,0,1,0,2016년 09월,37.6713606,127.04727199999999,도봉구,5.0,72.0,14.4
69,나래유치원,지광윤,김은주,1982-06-16,사립(사인),1982-06-16,서울특별시교육청 / 동부교육지원청,02-432-5009,http://www.naraekinder.com/,09 : 00 ~ 22 : 00,서울특별시 중랑구 봉우재로41길 12,"['방과후과정', '온종일돌봄']",1,3,2,0,0,0,0,22.0,60.0,51.0,0.0,0.0,0.0,0.0,1,1,0.0,0.0,11.0,0,0,0,0.0,4,0,0,11,11,3,4,3,1,0,2017년 10월,37.593981799999995,127.08962050000001,중랑구,11.0,133.0,12.090909090909092
70,나비유치원,조영숙,조영숙,1976-05-26,사립(사인),1982-05-26,서울특별시교육청 / 남부교육지원청,02-2612-6237,등록된 홈페이지가 없습니다.,09 : 00 ~ 18 : 00,서울특별시 구로구 고척로 30,['방과후과정'],1,2,2,0,0,0,0,11.0,34.0,47.0,0.0,0.0,0.0,0.0,1,1,0.0,0.0,7.0,0,0,0,0.0,1,0,0,7,7,0,0,4,3,0,2016년 10월,37.5011962,126.84925890000001,구로구,7.0,92.0,13.142857142857142
71,나사렛유치원,대한기독교나사렛성결유지재단,우숙경,2005-12-28,사립(법인),2005-12-28,서울특별시교육청 / 서부교육지원청,02-303-6721,등록된 홈페이지가 없습니다.,09 : 00 ~ 19 : 00,서울특별시 마포구 매봉산로 24-1,['방과후과정'],2,2,2,0,0,0,0,15.0,17.0,25.0,0.0,0.0,0.0,0.0,1,0,0.0,0.0,4.0,0,0,0,1.0,1,0,1,4,4,1,4,0,0,0,2017년 08월,37.5743284,126.89038219999999,마포구,5.0,57.0,11.4
72,남부유치원,김윤기,조미경,1986-03-27,사립(사인),1986-03-27,서울특별시교육청 / 강남서초교육지원청,02-572-2371,등록된 홈페이지가 없습니다.,09 : 00 ~ 18 : 00,서울특별시 강남구 언주로 123,"['방과후과정', '아침돌봄']",0,0,0,0,0,2,0,0.0,0.0,0.0,0.0,0.0,76.0,0.0,1,1,0.0,0.0,4.0,0,0,0,0.0,5,0,0,3,3,0,0,2,2,1,2016년 10월,37.4869126,127.04896470000001,강남구,4.0,76.0,19.0
73,"남서울유치원
                  
                  	(폐원)",박화철,신옥분,1975-02-22,사립(사인),1975-02-22,서울특별시교육청 / 동작관악교육지원청,02-877-0021,등록된 홈페이지가 없습니다.,09 : 00 ~ 18 : 00,서울특별시 관악구 양녕로 4,['방과후과정'],2,2,3,0,0,0,0,49.0,54.0,79.0,0.0,0.0,0.0,0.0,1,1,0.0,1.0,11.0,0,0,0,0.0,0,0,7,5,5,2,0,1,1,8,2015년 09월,37.482382799999996,126.9467462,관악구,12.0,182.0,15.166666666666666
74,노량진교회유치원,여충호,김신영,1989-03-02,사립(법인),1989-03-02,서울특별시교육청 / 동작관악교육지원청,02-817-3875,http://nrj-kids.net,08 : 40 ~ 19 : 00,서울특별시 동작구 노량진로30가길 9,['방과후과정'],1,1,1,0,0,0,0,20.0,24.0,27.0,0.0,0.0,0.0,0.0,1,1,0.0,0.0,4.0,0,0,0,0.0,3,0,2,2,2,0,0,1,1,2,2016년 09월,37.5127393,126.95601809999998,동작구,4.0,71.0,17.75
75,노원 삼육유치원,재단법인제칠일안식일예수재림교한국연합회유지재단,한재순,2012-05-30,사립(법인),2012-05-30,서울특별시교육청 / 북부교육지원청,02-948-2280,등록된 홈페이지가 없습니다.,09 : 00 ~ 20 : 00,서울특별시 노원구 공릉로42길 13-1,['방과후과정'],1,1,1,0,0,0,0,21.0,25.0,22.0,0.0,0.0,0.0,0.0,1,0,0.0,0.0,4.0,0,0,0,0.0,1,0,1,3,3,0,0,0,0,4,2015년 09월,37.6243838,127.0803424,노원구,4.0,68.0,17.0
76,녹번유치원,김기홍,조희숙,1966-03-01,사립(사인),1966-03-01,서울특별시교육청 / 서부교육지원청,02-355-0476,http://www.eungam.or.kr,09 : 00 ~ 17 : 00,서울특별시 은평구 은평로16길 11,['방과후과정'],2,1,1,0,0,0,0,29.0,27.0,30.0,0.0,0.0,0.0,0.0,1,0,0.0,0.0,6.0,0,0,0,0.0,0,0,1,5,5,6,0,0,0,0,2016년 10월,37.5998588,126.9299763,은평구,6.0,86.0,14.333333333333334
77,녹원유치원,최진경,허지영,1986-03-01,사립(사인),1986-03-07,서울특별시교육청 / 강동송파교육지원청,02-481-3141,등록된 홈페이지가 없습니다.,09 : 00 ~ 19 : 00,서울특별시 강동구 상암로63길 39-10,['방과후과정'],3,1,0,0,0,0,0,72.0,31.0,0.0,0.0,0.0,0.0,0.0,1,1,0.0,0.0,6.0,0,0,0,0.0,3,0,1,5,5,4,2,0,0,0,2014년 10월,37.548479,127.15355790000001,강동구,6.0,103.0,17.166666666666668
78,누리에유치원,최성희,최성희,1989-02-02,사립(사인),1989-02-22,서울특별시교육청 / 동부교육지원청,02-437-1201,http://cafe.naver.com/nuriekindergarten,09 : 00 ~ 20 : 00,서울특별시 중랑구 중랑천로 20,['방과후과정'],2,2,2,0,0,0,0,34.0,45.0,49.0,0.0,0.0,0.0,0.0,1,0,0.0,0.0,11.0,0,0,0,0.0,3,0,2,9,9,4,2,2,1,2,2015년 09월,37.5965859,127.07308290000002,중랑구,11.0,128.0,11.636363636363637
79,"다솔유치원
                  
                  	(폐원)",신상혁,신현숙,1989-12-07,사립(사인),1989-12-07,서울특별시교육청 / 남부교육지원청,02-2688-3852,등록된 홈페이지가 없습니다.,09 : 00 ~ 19 : 00,서울특별시 구로구 부일로11길 64,"['방과후과정', '특수학급']",0,0,1,1,0,0,0,0.0,0.0,11.0,6.0,0.0,0.0,0.0,1,0,0.0,0.0,1.0,0,0,0,0.0,1,0,0,0,0,1,0,0,0,1,2012년 09월,37.4958415,126.83082350000001,구로구,1.0,17.0,17.0
80,다솜유치원,홍성미,홍성미,1989-03-17,사립(사인),1989-03-17,서울특별시교육청 / 북부교육지원청,02-900-5977,등록된 홈페이지가 없습니다.,09 : 00 ~ 19 : 30,서울특별시 도봉구 해등로 195,['방과후과정'],1,3,3,0,0,0,0,43.0,79.0,82.0,0.0,0.0,0.0,0.0,1,1,0.0,1.0,12.0,0,0,0,0.0,1,0,3,10,10,5,5,0,1,2,2016년 11월,37.6572028,127.03519479999999,도봉구,13.0,204.0,15.692307692307692
81,다연유치원,김희경,김희경,2000-06-20,사립(사인),2000-06-20,서울특별시교육청 / 북부교육지원청,02-906-7807,등록된 홈페이지가 없습니다.,09 : 00 ~ 20 : 00,서울특별시 노원구 월계로45가길 94,['방과후과정'],1,1,1,0,0,0,0,16.0,9.0,22.0,0.0,0.0,0.0,0.0,1,1,0.0,0.0,3.0,0,0,0,3.0,4,0,1,2,2,0,0,1,1,1,2017년 10월,37.631655,127.05163449999999,노원구,6.0,47.0,7.833333333333333
82,다우림유치원,김애리,김애리,2017-03-30,사립(사인),2017-04-01,서울특별시교육청 / 서부교육지원청,.02-375-2237,등록된 홈페이지가 없습니다.,08 : 30 ~ 17 : 00,서울특별시 은평구 증산로21길 22,['방과후과정'],1,1,1,0,0,0,0,10.0,27.0,26.0,0.0,0.0,0.0,0.0,1,0,0.0,0.0,6.0,0,0,0,0.0,0,0,2,4,4,1,5,0,0,0,-,37.5961824,126.9123059,은평구,6.0,63.0,10.5
83,대건유치원,천주교서울대교구유지재단,강연미,1971-09-02,사립(법인),1971-09-02,서울특별시교육청 / 중부교육지원청,02-790-5016,http://www.daegeon.kg.kr,09 : 00 ~ 17 : 00,서울특별시 용산구 이촌로81길 38,['방과후과정'],2,2,2,0,0,0,0,40.0,51.0,60.0,0.0,0.0,0.0,0.0,1,1,0.0,0.0,11.0,0,0,0,0.0,10,0,2,9,9,6,2,2,1,0,2015년 09월,37.5208549,126.97753590000002,용산구,11.0,151.0,13.727272727272727
84,대림유치원,김정성,유현아,1983-03-01,사립(사인),1983-03-01,서울특별시교육청 / 남부교육지원청,02-833-9600,등록된 홈페이지가 없습니다.,09 : 00 ~ 20 : 00,서울특별시 영등포구 디지털로 455-7,['방과후과정'],0,0,0,0,0,1,0,0.0,0.0,0.0,0.0,0.0,12.0,0.0,1,0,0.0,0.0,2.0,0,0,0,0.0,0,0,0,2,2,0,1,1,0,0,2016년 10월,37.4962641,126.9069511,영등포구,2.0,12.0,6.0
85,대붕유치원,정용우,정웅기,1993-11-17,사립(사인),1993-11-17,서울특별시교육청 / 강서양천교육지원청,02-3663-1636,http://www.daebung.co.kr,09 : 30 ~ 20 : 00,서울특별시 강서구 허준로 176,"['방과후과정', '아침돌봄']",1,2,1,0,0,0,0,10.0,22.0,18.0,0.0,0.0,0.0,0.0,1,1,0.0,0.0,4.0,0,0,1,0.0,0,0,1,3,3,2,1,1,0,1,2016년 09월,37.561996,126.85713870000001,강서구,4.0,50.0,12.5
86,대원유치원,백나혜,백나혜,2014-02-11,사립(사인),2014-02-11,서울특별시교육청 / 성동광진교육지원청,02-458-0820,등록된 홈페이지가 없습니다.,09 : 00 ~ 19 : 00,서울특별시 광진구 뚝섬로41길 20,['방과후과정'],1,1,1,0,0,0,0,13.0,14.0,24.0,0.0,0.0,0.0,0.0,1,1,0.0,0.0,4.0,0,0,0,0.0,0,0,1,3,3,2,1,0,2,0,2015년 11월,37.5342119,127.07454320000001,광진구,4.0,51.0,12.75
87,대원유치원,강정구,강정구,1989-08-30,사립(사인),1989-09-01,서울특별시교육청 / 북부교육지원청,02-938-4868,http://www.deawon.co.kr,09 : 00 ~ 19 : 00,서울특별시 노원구 동일로228길 29,['방과후과정'],1,1,1,0,0,0,0,25.0,17.0,19.0,0.0,0.0,0.0,0.0,1,0,0.0,0.0,4.0,0,0,0,0.0,1,0,2,2,2,0,0,2,0,2,2016년 11월,37.667747600000006,127.0587347,노원구,4.0,61.0,15.25
88,대유유치원,김동균,김은희,1987-02-27,사립(법인),1987-02-27,서울특별시교육청 / 강서양천교육지원청,02-2644-0393,http://www.daeyoo1.com,09 : 30 ~ 20 : 00,서울특별시 강서구 곰달래로57길 39,['방과후과정'],1,1,2,0,0,0,0,16.0,24.0,45.0,0.0,0.0,0.0,0.0,1,0,0.0,0.0,4.0,0,0,0,2.0,3,0,5,1,1,4,0,0,0,0,2016년 09월,37.5339665,126.86158540000001,강서구,6.0,85.0,14.166666666666666
89,"대일유치원
                  
                  	(폐원)",-,-,1986-09-03,사립(법인),1986-09-03,서울특별시교육청 / 성동광진교육지원청,02-464-9867,등록된 홈페이지가 없습니다.,-,서울특별시 성동구 뚝섬로 404,['방과후과정'],0,0,0,0,0,0,0,0.0,0.0,0.0,0.0,0.0,0.0,0.0,1,0,0.0,0.0,1.0,0,0,0,0.0,0,0,1,0,0,-,-,-,-,-,2013년 10월,37.5385402,127.05538030000001,성동구,1.0,0.0,0.0
90,대진유치원,이재여,권진선,2007-04-25,사립(법인),2007-04-25,서울특별시교육청 / 서부교육지원청,02-334-3533,http://daejin.kidis.co.kr,08 : 30 ~ 18 : 00,서울특별시 마포구 성미산로11길 36,['방과후과정'],7,0,0,0,0,0,0,117.0,0.0,0.0,0.0,0.0,0.0,0.0,1,0,0.0,0.0,12.0,0,0,0,0.0,15,0,4,8,8,6,1,2,2,1,2017년 09월,37.5621879,126.91637250000001,마포구,12.0,117.0,9.75
91,대한유치원,원방희,권미자,1984-05-04,사립(사인),1984-05-04,서울특별시교육청 / 강서양천교육지원청,02-2692-7788,등록된 홈페이지가 없습니다.,09 : 30 ~ 18 : 00,서울특별시 양천구 오목로13길 31,['방과후과정'],1,1,1,0,0,0,0,14.0,14.0,14.0,0.0,0.0,0.0,0.0,1,0,0.0,0.0,3.0,0,0,0,1.0,1,0,0,3,3,0,3,0,0,0,2016년 09월,37.525694200000004,126.8447956,양천구,4.0,42.0,10.5
92,덕성여자대학교부속유치원,이정욱,이정욱,1984-01-09,사립(법인),1984-03-02,서울특별시교육청 / 북부교육지원청,02-995-0611,http://dskinder.or.kr/,09 : 00 ~ 18 : 00,서울특별시 도봉구 삼양로144길 33,['방과후과정'],1,1,2,0,0,1,0,16.0,25.0,43.0,0.0,0.0,20.0,0.0,1,1,0.0,0.0,6.0,0,0,0,0.0,1,0,1,5,5,4,0,1,0,1,2016년 09월,37.651198799999996,127.0161604,도봉구,6.0,104.0,17.333333333333332
93,덕수유치원,손인웅,안혜진,1985-12-01,사립(사인),1985-12-28,서울특별시교육청 / 성북강북교육지원청,02-3675-5164,http://www.ducksoo-i.net,09 : 30 ~ 20 : 00,서울특별시 성북구 성북로 127,['방과후과정'],2,2,1,0,0,0,0,22.0,38.0,30.0,0.0,0.0,0.0,0.0,1,1,0.0,0.0,8.0,0,0,0,0.0,3,0,2,6,6,5,0,0,1,2,2014년 9월,37.5940033,126.9950965,성북구,8.0,90.0,11.25
94,도곡렉슬유치원,전영순,정연희,2006-02-21,사립(사인),2006-03-06,서울특별시교육청 / 강남서초교육지원청,02-579-7736,등록된 홈페이지가 없습니다.,09 : 00 ~ 18 : 00,서울특별시 강남구 선릉로 221,['방과후과정'],0,0,0,0,0,8,0,0.0,0.0,0.0,0.0,0.0,197.0,0.0,1,0,0.0,2.0,15.0,0,0,0,0.0,0,0,4,13,13,7,2,0,4,4,2017년 09월,37.4936848,127.0507447,강남구,17.0,197.0,11.588235294117647
95,도원유치원,대한예수교장로회서울노회유지재단,김지연,1975-02-10,사립(법인),1975-02-10,서울특별시교육청 / 중부교육지원청,02-713-1960,등록된 홈페이지가 없습니다.,09 : 00 ~ 18 : 00,서울특별시 용산구 새창로12길 11-8,['방과후과정'],1,1,1,0,0,0,0,16.0,28.0,25.0,0.0,0.0,0.0,0.0,1,1,0.0,0.0,5.0,0,0,0,0.0,0,0,1,3,3,0,3,1,0,1,2015년 10월,37.5387549,126.9577341,용산구,5.0,69.0,13.8
96,"도현유치원
                  
                  	(폐원)",-,-,1997-04-16,사립(법인),1997-04-16,서울특별시교육청 / 남부교육지원청,02-863-2205,등록된 홈페이지가 없습니다.,-,서울특별시 구로구 구로동로28길 55,['방과후과정'],0,0,0,0,0,0,0,0.0,0.0,0.0,0.0,0.0,0.0,0.0,1,0,0.0,0.0,2.0,0,0,0,0.0,0,0,0,2,2,-,-,-,-,-,2013년 10월,37.4909429,126.8872034,구로구,2.0,0.0,0.0
98,돈보스꼬유치원,장종수,장종수,1964-11-26,사립(법인),1964-11-26,서울특별시교육청 / 남부교육지원청,02-833-9041,http://www.donbosco.me,09 : 10 ~ 18 : 00,서울특별시 영등포구 도영로22길 22,['방과후과정'],3,3,2,0,0,0,0,61.0,69.0,58.0,0.0,0.0,0.0,0.0,1,0,0.0,4.0,8.0,0,0,0,0.0,11,0,1,11,11,3,1,6,2,1,2015년 10월,37.5106756,126.90221070000001,영등포구,12.0,188.0,15.666666666666666
99,돌샘유치원,홍병지,권복희,2009-02-17,사립(사인),2009-03-03,서울특별시교육청 / 강동송파교육지원청,02-3426-5472,등록된 홈페이지가 없습니다.,09 : 00 ~ 19 : 00,서울특별시 강동구 고덕로 131,"['방과후과정', '온종일돌봄']",2,3,3,0,0,0,0,44.0,65.0,96.0,0.0,0.0,0.0,0.0,1,1,0.0,0.0,14.0,0,0,1,1.0,1,0,6,8,8,0,4,3,4,4,2016년 11월,37.5563679,127.1419695,강동구,15.0,205.0,13.666666666666666
100,돌샘유치원,홍병지,홍병지,2000-12-23,사립(사인),2000-12-23,서울특별시교육청 / 서부교육지원청,02-713-5472,등록된 홈페이지가 없습니다.,09 : 00 ~ 14 : 20,서울특별시 마포구 백범로37길 12,['방과후과정'],2,2,2,0,0,0,0,54.0,60.0,66.0,0.0,0.0,0.0,0.0,1,1,0.0,0.0,12.0,0,0,0,5.0,1,0,2,10,10,6,0,4,1,2,2016년 09월,37.5434415,126.95572709999999,마포구,17.0,180.0,10.588235294117647
101,돌샘유치원,석종희,한순자,1983-12-23,사립(사인),1984-03-02,서울특별시교육청 / 강남서초교육지원청,02-3411-0003,등록된 홈페이지가 없습니다.,09 : 00 ~ 20 : 00,서울특별시 강남구 개포로 516,['방과후과정'],2,2,2,0,0,0,0,31.0,43.0,47.0,0.0,0.0,0.0,0.0,1,1,0.0,1.0,7.0,0,0,0,0.0,1,0,3,5,5,4,1,2,1,0,2016년 11월,37.48883259999999,127.071487,강남구,8.0,121.0,15.125
102,"동광유치원
                  
                  	(폐원)",조경숙,엄성신,1985-02-08,사립(사인),1988-02-02,서울특별시교육청 / 동부교육지원청,02-2246-9317,등록된 홈페이지가 없습니다.,09 : 00 ~ 20 : 00,서울특별시 동대문구 사가정로25길 28-1,['방과후과정'],0,0,0,0,0,1,0,0.0,0.0,0.0,0.0,0.0,7.0,0.0,1,0,0.0,0.0,1.0,0,0,0,0.0,0,0,0,1,1,2,0,0,0,0,2016년 09월,37.5800694,127.0707311,동대문구,1.0,7.0,7.0
103,동국유치원,김경본,김경본,1992-04-13,사립(사인),1992-09-01,서울특별시교육청 / 동부교육지원청,02-436-1035,등록된 홈페이지가 없습니다.,09 : 00 ~ 20 : 00,서울특별시 중랑구 용마산로 250,['방과후과정'],1,1,1,0,0,0,0,12.0,15.0,30.0,0.0,0.0,0.0,0.0,1,0,0.0,0.0,5.0,0,0,0,0.0,0,0,1,4,4,4,1,0,0,0,2014년 10월,37.5737809,127.08792720000001,중랑구,5.0,57.0,11.4
104,동그라미유치원,장청자,윤선주,1988-01-22,사립(사인),2004-03-13,서울특별시교육청 / 강서양천교육지원청,02-2691-2525,등록된 홈페이지가 없습니다.,09 : 00 ~ 19 : 00,서울특별시 강서구 화곡로52길 14,['방과후과정'],1,2,2,0,0,0,0,52.0,71.0,56.0,0.0,0.0,0.0,0.0,1,1,0.0,0.0,10.0,0,0,0,0.0,1,0,4,6,6,5,1,0,2,3,2015년 09월,37.55000870000001,126.8490615,강서구,10.0,179.0,17.9
105,동그라미유치원,진순옥,김혜정,1994-12-14,사립(사인),1994-12-14,서울특별시교육청 / 동작관악교육지원청,02-587-5599,http://www.donggrami.com,09 : 00 ~ 19 : 00,서울특별시 동작구 사당로28길 34,['방과후과정'],4,3,3,0,0,0,0,98.0,82.0,89.0,0.0,0.0,0.0,0.0,1,1,0.0,0.0,14.0,0,0,0,0.0,3,0,2,12,12,7,2,5,0,0,2016년 10월,37.4816149,126.9793688,동작구,14.0,269.0,19.214285714285715
106,동덕여자대학교부속유치원,학교법인 동덕여학단,유혜자,1982-04-23,사립(법인),1983-03-04,서울특별시교육청 / 성북강북교육지원청,02-912-3031,http://dongdukchild.co.kr/,09 : 30 ~ 17 : 30,서울특별시 성북구 장월로1가길 9,['방과후과정'],0,0,2,3,0,0,0,0.0,0.0,55.0,81.0,0.0,0.0,0.0,1,1,0.0,0.0,11.0,0,0,0,1.0,5,0,2,9,9,4,1,0,1,5,2018년 09월,37.6062049,127.04398570000001,성북구,12.0,136.0,11.333333333333334
107,동명유치원,이정순,윤지영,1975-01-15,사립(사인),1975-01-15,서울특별시교육청 / 성북강북교육지원청,02-989-5723,http://cyworld.com/dongmyoungkid,09 : 00 ~ 17 : 00,서울특별시 강북구 오패산로 130,['방과후과정'],1,1,1,0,0,0,0,15.0,22.0,28.0,0.0,0.0,0.0,0.0,1,1,0.0,0.0,4.0,0,0,0,0.0,0,0,0,4,4,3,0,0,0,2,2019년 09월,37.6135473,127.03434209999999,강북구,4.0,65.0,16.25
108,동부유치원,강명주,정수경,2000-04-06,사립(법인),2000-04-06,서울특별시교육청 / 남부교육지원청,02-2613-8790,등록된 홈페이지가 없습니다.,09 : 00 ~ 20 : 00,서울특별시 구로구 고척로 49,"['방과후과정', '온종일돌봄']",1,2,2,0,0,0,0,20.0,36.0,45.0,0.0,0.0,0.0,0.0,1,0,0.0,0.0,7.0,0,0,1,0.0,2,0,1,6,6,1,2,2,3,0,2015년 10월,37.50504,126.85467990000001,구로구,7.0,101.0,14.428571428571429
109,동북유치원,조종건,주영숙,2008-12-17,사립(사인),2008-12-17,서울특별시교육청 / 서부교육지원청,02-389-6596,http://dongbook.kg.kr,09 : 00 ~ 20 : 00,서울특별시 은평구 진관4로 31,['방과후과정'],1,2,3,0,0,0,0,19.0,37.0,50.0,0.0,0.0,0.0,0.0,1,0,0.0,0.0,10.0,0,0,0,0.0,1,0,1,9,9,9,1,0,0,0,2015년 09월,37.59903,126.91480800000001,은평구,10.0,106.0,10.6
110,동산유치원,김미화,박연경,1983-03-01,사립(법인),1983-11-01,서울특별시교육청 / 서부교육지원청,02-302-1586,http://www.dongsankid.com,09 : 00 ~ 20 : 00,서울특별시 은평구 증산서길 88,['방과후과정'],1,2,1,0,0,0,0,23.0,30.0,32.0,0.0,0.0,0.0,0.0,1,0,0.0,0.0,6.0,0,0,0,0.0,0,0,3,3,3,4,1,0,0,1,2015년 10월,37.5839762,126.90723799999999,은평구,6.0,85.0,14.166666666666666
111,동산유치원,김양일,김하은,1986-01-31,사립(사인),1986-01-31,서울특별시교육청 / 남부교육지원청,02-866-6571,등록된 홈페이지가 없습니다.,09 : 00 ~ 20 : 00,서울특별시 금천구 시흥대로152길 35,['방과후과정'],1,1,2,0,0,0,0,25.0,21.0,41.0,0.0,0.0,0.0,0.0,1,1,0.0,0.0,7.0,0,0,0,0.0,0,0,1,6,6,0,0,4,2,1,2016년 09월,37.4768604,126.90095339999999,금천구,7.0,87.0,12.428571428571429
112,동삼유치원,김해화,정유경,1987-12-19,사립(사인),1988-03-02,서울특별시교육청 / 강동송파교육지원청,02-400-1262,등록된 홈페이지가 없습니다.,09 : 00 ~ 18 : 30,서울특별시 송파구 마천로41길 14,['방과후과정'],1,1,1,0,0,0,0,6.0,4.0,18.0,0.0,0.0,0.0,0.0,1,0,0.0,0.0,3.0,0,0,0,0.0,0,0,0,3,3,1,2,0,0,0,2016년 10월,37.4969515,127.14906770000002,송파구,3.0,28.0,9.333333333333334
114,동선유치원,재단법인 한국기독교장로회총회유지재단,양유숙,1985-03-04,사립(법인),1985-03-04,서울특별시교육청 / 성북강북교육지원청,02-926-3704,http://tdongsun.kidis.co.kr,09 : 00 ~ 20 : 00,서울특별시 성북구 보문로 98,['방과후과정'],1,1,1,0,0,0,0,12.0,22.0,28.0,0.0,0.0,0.0,0.0,1,0,0.0,0.0,6.0,0,0,0,0.0,0,0,1,5,5,4,1,1,0,0,2016년 10월,37.58399259999999,127.02036409999998,성북구,6.0,62.0,10.333333333333334
115,동성유치원,윤기섭,김주경,1995-08-10,사립(사인),1995-09-04,서울특별시교육청 / 동부교육지원청,02-434-2690,등록된 홈페이지가 없습니다.,09 : 30 ~ 20 : 00,서울특별시 중랑구 신내로 110,['방과후과정'],3,3,2,0,0,0,0,44.0,57.0,61.0,0.0,0.0,0.0,0.0,1,1,0.0,0.0,12.0,0,0,1,0.0,12,0,1,11,11,3,6,4,0,0,2017년 09월,37.60831659999999,127.096093,중랑구,12.0,162.0,13.5
116,동심유치원,권명희,권명희,1997-01-20,사립(사인),1997-01-20,서울특별시교육청 / 성동광진교육지원청,02-499-6101,http://dongsim.kidis.co.kr,09 : 00 ~ 22 : 00,서울특별시 광진구 군자로12길 46,"['방과후과정', '온종일돌봄']",0,0,1,1,0,0,0,0.0,0.0,16.0,26.0,0.0,0.0,0.0,1,0,0.0,0.0,3.0,0,0,0,1.0,2,0,1,2,2,0,1,1,1,0,2016년 11월,37.55125220000001,127.0726711,광진구,4.0,42.0,10.5
117,동아유치원,손재환,박정혜,2000-11-23,사립(사인),2000-11-23,서울특별시교육청 / 동작관악교육지원청,02-6332-7718,http://www.dongakids.net,09 : 00 ~ 19 : 30,서울특별시 동작구 만양로3길 48,['방과후과정'],0,2,4,0,0,0,0,0.0,35.0,89.0,0.0,0.0,0.0,0.0,1,1,0.0,0.0,8.0,0,0,0,0.0,1,0,1,7,7,1,0,4,2,1,2014년 10월,37.5082455,126.94332109999999,동작구,8.0,124.0,15.5
118,동아유치원,김찬수,최숙경,2000-02-12,사립(사인),2000-02-12,서울특별시교육청 / 남부교육지원청,02-2677-7539,등록된 홈페이지가 없습니다.,09 : 00 ~ 17 : 00,서울특별시 구로구 신도림로 87,['방과후과정'],2,2,2,0,0,0,0,39.0,55.0,44.0,0.0,0.0,0.0,0.0,1,1,0.0,0.0,8.0,0,0,0,0.0,6,0,3,5,5,2,0,2,0,5,2016년 11월,37.5110546,126.8827673,구로구,8.0,138.0,17.25
119,동안유치원,손승현,손승현,1998-11-25,사립(사인),1998-11-25,서울특별시교육청 / 동부교육지원청,02-957-1830,http://dongkid.org/,09 : 00 ~ 20 : 00,서울특별시 동대문구 회기로25길 67,"['방과후과정', '아침돌봄']",2,2,2,0,0,0,0,31.0,47.0,54.0,0.0,0.0,0.0,0.0,1,1,0.0,0.0,9.0,0,0,0,0.0,12,0,0,9,9,3,2,2,2,1,2017년 10월,37.5926751,127.0567777,동대문구,9.0,132.0,14.666666666666666
120,동연유치원,박영희,박영희,1983-02-21,사립(사인),1983-02-21,서울특별시교육청 / 강서양천교육지원청,02-2642-4842,등록된 홈페이지가 없습니다.,09 : 00 ~ 20 : 00,서울특별시 양천구 목동중앙북로7길 22,['방과후과정'],2,2,2,0,0,0,0,29.0,31.0,58.0,0.0,0.0,0.0,0.0,1,1,0.0,1.0,8.0,0,0,0,3.0,5,0,1,9,9,7,1,1,0,1,2017년 09월,37.548835499999996,126.8676933,양천구,12.0,118.0,9.833333333333334
121,동우유치원,김용실,정옥주,1979-12-18,사립(사인),1979-12-18,서울특별시교육청 / 강남서초교육지원청,02-582-5197,등록된 홈페이지가 없습니다.,09 : 30 ~ 19 : 00,서울특별시 서초구 명달로22길 24,['방과후과정'],1,2,2,0,0,0,0,23.0,51.0,58.0,0.0,0.0,0.0,0.0,1,1,0.0,0.0,9.0,0,0,0,0.0,0,0,2,7,7,6,1,2,0,1,2015년 11월,37.4863904,127.0055631,서초구,9.0,132.0,14.666666666666666
122,동원유치원,차정희,백화림,1993-02-24,사립(사인),1993-02-24,서울특별시교육청 / 동작관악교육지원청,02-875-3456,등록된 홈페이지가 없습니다.,09 : 00 ~ 20 : 00,서울특별시 관악구 행운1길 96,['방과후과정'],1,2,2,0,0,0,0,23.0,28.0,42.0,0.0,0.0,0.0,0.0,1,0,0.0,0.0,9.0,0,0,0,0.0,0,0,1,8,8,1,2,4,2,0,2016년 09월,37.4827394,126.95636110000001,관악구,9.0,93.0,10.333333333333334
123,동은유치원,조향숙,심영선,1991-08-23,사립(사인),1991-08-23,서울특별시교육청 / 북부교육지원청,02-949-1064,http://dongeun.kids.co.kr,09 : 00 ~ 17 : 00,서울특별시 노원구 동일로207길 23,['방과후과정'],1,1,1,0,0,0,0,4.0,11.0,23.0,0.0,0.0,0.0,0.0,1,0,0.0,0.0,4.0,0,0,0,0.0,0,0,0,4,4,4,0,0,0,0,2015년 09월,37.6420655,127.0640457,노원구,4.0,38.0,9.5
124,동인유치원,이기영,조영옥,1992-02-27,사립(사인),1992-02-27,서울특별시교육청 / 성동광진교육지원청,02-457-0774,http://www.dongwon.org,09 : 00 ~ 19 : 00,서울특별시 광진구 자양로30길 6,['방과후과정'],0,0,0,0,1,0,0,0.0,0.0,0.0,0.0,20.0,0.0,0.0,1,0,0.0,0.0,1.0,0,0,0,0.0,1,0,0,1,1,1,0,0,0,1,2016년 11월,37.5436817,127.0851595,광진구,1.0,20.0,20.0
125,동일유치원,한윤자,한윤자,1992-01-07,사립(법인),1992-01-07,서울특별시교육청 / 남부교육지원청,02-892-6478,http://dongil.kidis.co.kr,09 : 00 ~ 18 : 30,서울특별시 금천구 탑골로10길 45,['방과후과정'],3,2,2,0,0,0,0,57.0,52.0,51.0,0.0,0.0,0.0,0.0,1,0,0.0,0.0,7.0,0,0,0,3.0,2,0,3,7,7,1,0,3,2,1,2016년 11월,37.451389899999995,126.916402,금천구,10.0,160.0,16.0
126,동일유치원,김휘현,신상숙,1981-02-09,사립(법인),1981-02-09,서울특별시교육청 / 동부교육지원청,02-432-2949,등록된 홈페이지가 없습니다.,09 : 00 ~ 20 : 00,서울특별시 중랑구 면목로35길 21,['방과후과정'],2,2,2,0,0,0,0,28.0,49.0,50.0,0.0,0.0,0.0,0.0,1,1,0.0,1.0,8.0,0,0,0,0.0,1,0,5,4,4,4,4,0,0,2,2016년 10월,37.5780848,127.0846131,중랑구,9.0,127.0,14.11111111111111
127,동정성모유치원,이병옥,김경옥,1988-01-15,사립(법인),1988-01-15,서울특별시교육청 / 남부교육지원청,02-2684-3624,등록된 홈페이지가 없습니다.,08 : 50 ~ 16 : 50,서울특별시 구로구 경인로2길 11,['방과후과정'],3,2,2,0,0,0,0,60.0,54.0,60.0,0.0,0.0,0.0,0.0,1,1,0.0,0.0,13.0,0,0,0,1.0,5,0,3,10,10,3,2,5,0,3,2015년 11월,37.4904205,126.8276932,구로구,14.0,174.0,12.428571428571429
128,동천유치원,전충현,이은혜,1996-05-08,사립(사인),1996-05-08,서울특별시교육청 / 남부교육지원청,02-842-8972,등록된 홈페이지가 없습니다.,09 : 00 ~ 18 : 00,서울특별시 영등포구 신길로40길 10,['방과후과정'],1,1,1,0,0,0,0,30.0,26.0,28.0,0.0,0.0,0.0,0.0,1,0,0.0,0.0,4.0,0,0,0,0.0,1,0,0,4,4,4,0,0,0,0,2016년 09월,37.5065091,126.912233,영등포구,4.0,84.0,21.0
129,동화나라유치원,신영은,신영은,2002-02-04,사립(사인),2002-02-04,서울특별시교육청 / 북부교육지원청,02-939-6715,등록된 홈페이지가 없습니다.,09 : 00 ~ 19 : 00,서울특별시 노원구 덕릉로 780,['방과후과정'],2,2,2,0,0,0,0,22.0,38.0,44.0,0.0,0.0,0.0,0.0,1,0,0.0,1.0,8.0,0,0,0,0.0,1,0,1,8,8,3,0,5,0,1,2014년 09월,37.6669249,127.07973490000002,노원구,9.0,104.0,11.555555555555555
130,동화나라유치원,김애순,김애순,1991-11-30,사립(사인),1991-11-30,서울특별시교육청 / 강동송파교육지원청,02-473-1136,등록된 홈페이지가 없습니다.,08 : 30 ~ 19 : 30,서울특별시 송파구 강동대로3길 23,['방과후과정'],3,3,2,0,0,0,0,70.0,74.0,59.0,0.0,0.0,0.0,0.0,1,1,0.0,1.0,18.0,0,0,0,0.0,1,0,3,16,16,3,3,7,3,3,2016년 11월,37.5287737,127.11541740000001,송파구,19.0,203.0,10.68421052631579
131,동화유치원,김경옥,남은희,1994-01-14,사립(사인),1994-01-14,서울특별시교육청 / 강남서초교육지원청,02-595-9392,등록된 홈페이지가 없습니다.,09 : 00 ~ 19 : 00,서울특별시 서초구 서초중앙로24길 43,['방과후과정'],1,1,1,0,0,0,0,21.0,27.0,23.0,0.0,0.0,0.0,0.0,1,1,0.0,0.0,6.0,0,0,0,0.0,0,0,2,4,4,1,2,2,1,0,2017년 09월,37.496252399999996,127.0182815,서초구,6.0,71.0,11.833333333333334
132,두산효자유치원,석성환,이효자,2003-03-08,사립(사인),2003-03-08,서울특별시교육청 / 성북강북교육지원청,02-963-8334,http://www.dshyoja.kidswon.com,09 : 00 ~ 20 : 00,서울특별시 성북구 화랑로48길 16,['방과후과정'],1,2,1,0,0,0,0,18.0,32.0,27.0,0.0,0.0,0.0,0.0,1,1,0.0,0.0,7.0,0,0,0,0.0,0,0,0,7,7,1,3,3,0,0,2016년 10월,37.6126112,127.06877340000001,성북구,7.0,77.0,11.0
133,두솔유치원,이성자,박현숙,1994-02-17,사립(사인),1994-02-17,서울특별시교육청 / 북부교육지원청,02-991-8337,등록된 홈페이지가 없습니다.,09 : 00 ~ 20 : 00,서울특별시 노원구 초안산로 19,['방과후과정'],1,2,1,0,0,0,0,25.0,36.0,35.0,0.0,0.0,0.0,0.0,1,1,0.0,0.0,7.0,0,0,0,1.0,0,0,1,6,6,0,0,1,4,3,2016년 10월,37.629540500000004,127.05412890000001,노원구,8.0,96.0,12.0
134,둔촌유치원,유대준,김숙,1989-08-10,사립(사인),1989-09-01,서울특별시교육청 / 강동송파교육지원청,02-475-7913,http://doonchon.happyihome.com,09 : 00 ~ 17 : 00,서울특별시 강동구 풍성로63길 73,"['방과후과정', '아침돌봄']",1,1,1,0,0,0,0,20.0,31.0,29.0,0.0,0.0,0.0,0.0,1,0,0.0,0.0,5.0,0,0,0,1.0,2,0,0,5,5,2,1,1,1,0,2016년 10월,37.53134,127.13969250000001,강동구,6.0,80.0,13.333333333333334
135,"둘리유치원
                  
                  	(폐원)",-,-,1988-01-25,사립(사인),1988-03-02,서울특별시교육청 / 강동송파교육지원청,02-426-6114,등록된 홈페이지가 없습니다.,-,서울특별시 강동구 구천면로 668,['방과후과정'],0,0,0,0,0,0,0,0.0,0.0,0.0,0.0,0.0,0.0,0.0,1,0,0.0,0.0,2.0,0,0,1,0.0,1,0,0,0,0,-,-,-,-,-,2013년 12월,37.55077989999999,127.17218390000002,강동구,2.0,0.0,0.0
136,등대유치원,강종원,강종원,1986-02-07,사립(사인),1986-02-07,서울특별시교육청 / 강서양천교육지원청,02-2646-0204,등록된 홈페이지가 없습니다.,09 : 00 ~ 19 : 30,서울특별시 양천구 목동동로12길 60,['방과후과정'],2,2,2,0,0,0,0,42.0,51.0,49.0,0.0,0.0,0.0,0.0,1,1,0.0,0.0,10.0,0,0,0,0.0,0,0,1,9,9,4,1,4,1,0,2015년 10월,37.523538200000004,126.87153670000001,양천구,10.0,142.0,14.2
137,"등등유치원
                  
                  	(폐원)",김정선,전병길,1982-05-29,사립(사인),1982-05-29,서울특별시교육청 / 강서양천교육지원청,02-2642-0686,등록된 홈페이지가 없습니다.,09 : 00 ~ 18 : 30,서울특별시 양천구 목동중앙북로7가길 38,['방과후과정'],1,1,1,0,0,0,0,5.0,10.0,19.0,0.0,0.0,0.0,0.0,1,0,0.0,0.0,4.0,0,0,0,1.0,0,0,2,2,2,0,2,1,0,1,2012년 10월,37.5495448,126.86555729999999,양천구,5.0,34.0,6.8
138,등촌유치원,문재섭,강미희,2009-08-17,사립(법인),2009-08-17,서울특별시교육청 / 강서양천교육지원청,02-2646-0606,등록된 홈페이지가 없습니다.,09 : 00 ~ 18 : 30,서울특별시 양천구 목동중앙북로8길 46,['방과후과정'],1,1,1,0,0,0,0,19.0,20.0,29.0,0.0,0.0,0.0,0.0,1,1,0.0,0.0,4.0,0,0,0,0.0,1,0,0,4,4,1,0,2,1,0,2016년 11월,37.5464859,126.86490649999999,양천구,4.0,68.0,17.0
139,등촌이화유치원,김성우,최경희,2011-04-04,사립(사인),2011-04-04,서울특별시교육청 / 강서양천교육지원청,02-2658-3123,등록된 홈페이지가 없습니다.,09 : 20 ~ 20 : 00,서울특별시 강서구 화곡로63가길 26,['방과후과정'],1,2,2,0,0,0,0,12.0,25.0,23.0,0.0,0.0,0.0,0.0,1,0,0.0,0.0,5.0,0,0,0,4.0,1,0,0,5,5,0,1,2,1,1,2015년 09월,37.559692,126.847946,강서구,9.0,60.0,6.666666666666667
140,등촌제일유치원,예수교대한성결교회 유지재단,이애미,1989-03-31,사립(법인),1989-03-31,서울특별시교육청 / 강서양천교육지원청,02-3663-6043,등록된 홈페이지가 없습니다.,09 : 00 ~ 19 : 00,서울특별시 강서구 화곡로66길 118,['방과후과정'],2,2,2,0,0,0,0,42.0,48.0,60.0,0.0,0.0,0.0,0.0,1,0,0.0,0.0,10.0,0,0,0,0.0,1,0,5,5,5,1,3,1,2,3,2017년 10월,37.5554128,126.8593443,강서구,10.0,150.0,15.0
141,등현유치원,권영숙,권영숙,1996-02-08,사립(사인),1996-02-08,서울특별시교육청 / 강서양천교육지원청,02-3662-2205,등록된 홈페이지가 없습니다.,09 : 00 ~ 17 : 00,서울특별시 강서구 화곡로63가길 63,['방과후과정'],3,2,2,0,0,0,0,50.0,46.0,40.0,0.0,0.0,0.0,0.0,1,1,0.0,0.0,8.0,0,0,0,1.0,6,0,1,7,7,4,0,4,0,0,2016년 09월,37.561422799999995,126.84849879999999,강서구,9.0,136.0,15.11111111111111
142,라라유치원,김영선,천은미,1987-10-13,사립(사인),1987-10-13,서울특별시교육청 / 서부교육지원청,02-355-0105,http://lalakids.ddorongi.co.kr,09 : 00 ~ 18 : 00,서울특별시 은평구 갈현로 170-1,['방과후과정'],0,0,1,1,0,0,0,0.0,0.0,14.0,9.0,0.0,0.0,0.0,1,0,0.0,0.0,2.0,0,0,0,0.0,0,0,0,2,2,1,0,1,0,0,2016년 09월,37.6131282,126.91194579999998,은평구,2.0,23.0,11.5
143,란키즈유치원,송미화,송미화,2017-03-07,사립(사인),2017-03-07,서울특별시교육청 / 강동송파교육지원청,.02-404-4045,등록된 홈페이지가 없습니다.,09 : 00 ~ 18 : 00,서울특별시 송파구 새말로8길 22-5,['방과후과정'],1,2,1,0,0,0,0,30.0,22.0,25.0,0.0,0.0,0.0,0.0,1,0,0.0,0.0,7.0,0,0,0,1.0,1,0,1,6,6,3,4,0,0,0,-,37.480738200000005,127.1262696,송파구,8.0,77.0,9.625
144,럭키유치원,김태선,김은영,1983-03-18,사립(사인),1983-03-18,서울특별시교육청 / 남부교육지원청,02-806-0100,등록된 홈페이지가 없습니다.,09 : 00 ~ 19 : 00,서울특별시 금천구 시흥대로47길 43,['방과후과정'],1,2,2,0,0,0,0,17.0,30.0,36.0,0.0,0.0,0.0,0.0,1,0,0.0,0.0,8.0,0,0,0,0.0,1,0,2,6,6,4,2,2,0,0,2016년 09월,37.4487403,126.8991848,금천구,8.0,83.0,10.375
145,럭키유치원,정외상,황유현,1997-12-26,사립(사인),1997-12-26,서울특별시교육청 / 강남서초교육지원청,02-573-7048,http://www.luckids.org,09 : 00 ~ 18 : 00,서울특별시 강남구 논현로 213,['방과후과정'],1,2,2,0,0,0,0,24.0,52.0,52.0,0.0,0.0,0.0,0.0,1,1,0.0,0.0,10.0,0,0,0,0.0,0,0,3,7,7,0,3,2,2,3,2015년 10월,37.4904143,127.04018590000001,강남구,10.0,128.0,12.8
146,레인보우유치원,황정식,정미숙,2005-04-15,사립(법인),2005-04-15,서울특별시교육청 / 강서양천교육지원청,02-2653-7272,http://www.rainbowkid.net,09 : 00 ~ 18 : 00,서울특별시 양천구 목동중앙북로24길 19-8,['방과후과정'],1,2,1,0,0,0,0,21.0,42.0,28.0,0.0,0.0,0.0,0.0,1,0,0.0,0.0,9.0,0,0,0,0.0,0,0,1,8,8,7,0,2,0,0,2015년 11월,37.54549179999999,126.8780767,양천구,9.0,91.0,10.11111111111111
147,로뎅유치원,김미숙,정유리,1991-11-01,사립(사인),1991-11-01,서울특별시교육청 / 동부교육지원청,02-491-2114,https://rodin.happyihome.com/,09 : 00 ~ 19 : 30,서울특별시 중랑구 봉화산로 90,['방과후과정'],0,0,1,1,0,0,0,0.0,0.0,22.0,22.0,0.0,0.0,0.0,1,0,0.0,0.0,4.0,0,0,0,0.0,0,0,1,3,3,1,3,0,0,0,2016년 10월,37.601958,127.08451770000002,중랑구,4.0,44.0,11.0
148,로사유치원,염수정,김미와,1971-10-29,사립(법인),1972-03-10,서울특별시교육청 / 성동광진교육지원청,02-497-2547,등록된 홈페이지가 없습니다.,09 : 00 ~ 17 : 00,서울특별시 성동구 성덕정길 23,['방과후과정'],1,1,1,0,0,0,0,24.0,28.0,30.0,0.0,0.0,0.0,0.0,1,1,0.0,0.0,6.0,0,0,0,0.0,4,0,0,6,6,3,0,1,2,0,2016년 11월,37.539413700000004,127.0464685,성동구,6.0,82.0,13.666666666666666
149,루이유치원,정은미,김인자,2012-08-31,사립(법인),2012-09-11,서울특별시교육청 / 성북강북교육지원청,02-919-5959,http://www.lui.or.kr,09 : 00 ~ 19 : 00,서울특별시 성북구 서경로6길 13,['방과후과정'],2,3,0,0,0,0,0,80.0,80.0,0.0,0.0,0.0,0.0,0.0,1,0,0.0,0.0,10.0,0,0,0,0.0,6,0,3,7,7,3,3,4,0,0,2016년 10월,37.606519299999995,127.0176507,성북구,10.0,160.0,16.0
150,리라유치원,김점미,윤홍주,2012-03-01,사립(사인),1994-10-10,서울특별시교육청 / 강남서초교육지원청,02-2226-8686,등록된 홈페이지가 없습니다.,09 : 00 ~ 19 : 00,서울특별시 강남구 광평로19길 15,['방과후과정'],1,1,2,0,0,0,0,20.0,32.0,43.0,0.0,0.0,0.0,0.0,1,1,0.0,0.0,8.0,0,0,0,0.0,0,0,1,7,7,1,1,0,2,4,2016년 10월,37.4849458,127.0851548,강남구,8.0,95.0,11.875
151,리라유치원,권미라,권미라,1965-05-20,사립(법인),1965-05-20,서울특별시교육청 / 중부교육지원청,02-753-7751,http://www.lilakinder.kr,09 : 00 ~ 15 : 50,서울특별시 중구 소파로2길 7,['방과후과정'],2,3,3,0,0,0,0,48.0,76.0,83.0,0.0,0.0,0.0,0.0,1,1,0.0,0.0,9.0,0,0,0,1.0,12,0,5,5,5,0,2,1,2,4,2015년 09월,37.55797020000001,126.9885837,중구,10.0,207.0,20.7
152,리아유치원,김명희,강성희,1989-09-01,사립(사인),1989-09-01,서울특별시교육청 / 강동송파교육지원청,02-404-0708,등록된 홈페이지가 없습니다.,09 : 00 ~ 18 : 00,서울특별시 송파구 양재대로 1218,['방과후과정'],3,2,2,0,0,0,0,66.0,49.0,50.0,0.0,0.0,0.0,0.0,1,1,0.0,0.0,10.0,0,0,0,0.0,0,0,2,8,8,6,1,0,0,3,2014년 10월,37.5140777,127.1334283,송파구,10.0,165.0,16.5
153,린덴바움유치원,황은식,황은식,2016-02-22,사립(사인),2016-03-01,서울특별시교육청 / 중부교육지원청,02-730-6207,http://cafe.daum.net/linden1004,09 : 00 ~ 17 : 00,서울특별시 종로구 통일로12길 51,['방과후과정'],3,3,3,0,0,0,0,54.0,66.0,71.0,0.0,0.0,0.0,0.0,1,0,0.0,0.0,14.0,0,0,0,0.0,3,0,1,13,13,7,4,3,0,0,2016년 09월,37.5752089,126.96058740000001,종로구,14.0,191.0,13.642857142857142
154,마포대진유치원,학교법인수색대진학원 이재여,김기정,2009-06-16,사립(법인),2009-06-16,서울특별시교육청 / 서부교육지원청,02-334-0161,등록된 홈페이지가 없습니다.,08 : 30 ~ 18 : 00,서울특별시 마포구 성미산로 110,['방과후과정'],0,6,5,0,0,0,0,0.0,137.0,148.0,0.0,0.0,0.0,0.0,1,1,0.0,0.0,23.0,0,0,0,0.0,47,0,9,14,14,7,7,4,2,3,2017년 11월,37.5618065,126.91929259999999,마포구,23.0,285.0,12.391304347826088
156,메이플유치원,김상아,김미숙,1988-12-30,사립(사인),1988-12-30,서울특별시교육청 / 동작관악교육지원청,02-845-7272,http://www.maplekin.com,09 : 00 ~ 20 : 00,서울특별시 동작구 여의대방로 22,['방과후과정'],2,2,2,0,0,0,0,34.0,40.0,40.0,0.0,0.0,0.0,0.0,1,1,0.0,0.0,8.0,0,0,0,0.0,6,0,4,4,4,4,0,4,0,0,2016년 10월,37.49612219999999,126.92426609999998,동작구,8.0,114.0,14.25
157,명덕유치원,김재근,김신애,1988-02-22,사립(사인),1988-04-01,서울특별시교육청 / 강동송파교육지원청,02-426-1196,http://www.myungduk.co.kr,09 : 00 ~ 18 : 00,서울특별시 강동구 동남로83길 66,"['방과후과정', '온종일돌봄']",2,3,3,0,0,0,0,51.0,83.0,80.0,0.0,0.0,0.0,0.0,1,1,0.0,0.0,12.0,0,0,0,0.0,10,0,0,12,12,5,5,0,2,0,2016년 09월,37.5598384,127.1531555,강동구,12.0,214.0,17.833333333333332
158,명덕유치원,전현옥,전현옥,1977-05-09,사립(사인),1956-03-03,서울특별시교육청 / 성북강북교육지원청,02-989-0175,등록된 홈페이지가 없습니다.,09 : 00 ~ 18 : 00,서울특별시 성북구 삼양로 74,['방과후과정'],0,1,1,0,0,0,0,0.0,4.0,7.0,0.0,0.0,0.0,0.0,0,0,0.0,0.0,2.0,0,0,0,0.0,0,0,2,0,0,0,0,0,0,2,2017년 11월,37.6097121,127.02290929999998,성북구,2.0,11.0,5.5
159,명성유치원,최성식,정영희,1997-03-10,사립(사인),1997-03-10,서울특별시교육청 / 동작관악교육지원청,02-874-3350,등록된 홈페이지가 없습니다.,09 : 00 ~ 20 : 00,서울특별시 관악구 광신길 154,['방과후과정'],2,1,2,0,0,0,0,24.0,22.0,40.0,0.0,0.0,0.0,0.0,1,0,0.0,0.0,6.0,0,0,0,2.0,0,0,1,5,5,0,1,1,2,2,2016년 10월,37.4654781,126.92699640000002,관악구,8.0,86.0,10.75
160,명수유치원,(재)천주교서울대교구 유지재단 명수유치원,안영숙,1966-11-16,사립(법인),1966-11-16,서울특별시교육청 / 동작관악교육지원청,02-816-2964,http://www.mungsu.kg.kr,09 : 00 ~ 18 : 30,서울특별시 동작구 흑석로13길 3,['방과후과정'],1,2,1,0,0,0,0,22.0,56.0,28.0,0.0,0.0,0.0,0.0,1,1,0.0,0.0,7.0,0,0,0,0.0,8,0,2,5,5,0,0,2,2,3,2015년 10월,37.50881589999999,126.9603799,동작구,7.0,106.0,15.142857142857142
161,명신유치원,이용덕,이신미,1991-10-01,사립(법인),1991-10-01,서울특별시교육청 / 남부교육지원청,02-832-5543,등록된 홈페이지가 없습니다.,09 : 30 ~ 20 : 00,서울특별시 영등포구 신길로41라길 13-9,['방과후과정'],1,2,2,0,0,0,0,16.0,43.0,42.0,0.0,0.0,0.0,0.0,1,1,0.0,0.0,8.0,0,0,0,1.0,2,0,3,5,5,5,3,0,0,0,2016년 10월,37.507454700000004,126.90818590000002,영등포구,9.0,101.0,11.222222222222221
162,명지전문대학부속명지유치원,박정선,박정선,1978-02-27,사립(법인),1978-02-27,서울특별시교육청 / 서부교육지원청,02-302-5296,http://kg.mjc.ac.kr,09 : 00 ~ 18 : 00,서울특별시 서대문구 명지2길 37,['방과후과정'],0,0,2,4,0,0,0,0.0,0.0,56.0,96.0,0.0,0.0,0.0,1,1,0.0,0.0,12.0,0,0,0,0.0,10,0,2,10,10,4,2,2,2,2,2014년 10월,37.583678000000006,126.92639469999999,서대문구,12.0,152.0,12.666666666666666
163,모아유치원,윤대섭,이명진,2014-10-10,사립(사인),2015-03-01,서울특별시교육청 / 동작관악교육지원청,02-532-6667,등록된 홈페이지가 없습니다.,09 : 00 ~ 18 : 30,서울특별시 동작구 동작대로27길 62,['방과후과정'],1,1,1,0,0,0,0,22.0,28.0,23.0,0.0,0.0,0.0,0.0,1,0,0.0,0.0,6.0,0,0,0,0.0,0,0,2,4,4,5,1,0,0,0,2015년 11월,37.4883011,126.9789986,동작구,6.0,73.0,12.166666666666666
164,목동다솜유치원,박상길,박갑원,1986-10-30,사립(사인),1986-10-30,서울특별시교육청 / 강서양천교육지원청,02-2692-8975,http://dasomkids.modoo.at/,09 : 30 ~ 19 : 00,서울특별시 양천구 월정로9길 23-4,['방과후과정'],2,2,2,0,0,0,0,33.0,33.0,47.0,0.0,0.0,0.0,0.0,1,0,0.0,0.0,9.0,0,0,1,0.0,8,0,3,6,6,2,2,1,1,4,2016년 09월,37.5241987,126.8387504,양천구,9.0,113.0,12.555555555555555
165,목동유치원,박향순,조유나,2014-11-18,사립(사인),2015-02-23,서울특별시교육청 / 강서양천교육지원청,02-2065-3373,http://www.mokdong.kidswon.com,09 : 00 ~ 20 : 00,서울특별시 양천구 오목로42길 13,['방과후과정'],2,2,2,0,0,0,0,26.0,36.0,28.0,0.0,0.0,0.0,0.0,1,0,0.0,0.0,7.0,0,0,0,0.0,3,0,1,6,6,1,4,2,0,0,2016년 10월,37.5242631,126.86053829999999,양천구,7.0,90.0,12.857142857142858
166,목성유치원,박미경,박미경,1989-08-25,사립(사인),1989-08-25,서울특별시교육청 / 강서양천교육지원청,02-2642-7970,http://cafe.daum.net/moksung123,09 : 00 ~ 19 : 00,서울특별시 양천구 목동동로 50,['방과후과정'],2,2,2,0,0,0,0,50.0,58.0,58.0,0.0,0.0,0.0,0.0,1,1,0.0,0.0,13.0,0,0,0,0.0,0,0,1,12,12,4,3,4,2,0,2017년 03월,37.5131601,126.8605838,양천구,13.0,166.0,12.76923076923077
167,목원유치원,조병순,고미정,2001-10-29,사립(사인),2001-10-29,서울특별시교육청 / 남부교육지원청,02-2066-6060,등록된 홈페이지가 없습니다.,09 : 00 ~ 19 : 00,서울특별시 구로구 개봉로20길 6,['방과후과정'],3,3,2,0,0,0,0,50.0,68.0,52.0,0.0,0.0,0.0,0.0,1,0,0.0,0.0,14.0,0,0,1,1.0,2,0,4,10,10,3,0,4,3,5,2015년 10월,37.4919831,126.85853540000001,구로구,15.0,170.0,11.333333333333334
168,묘동유치원,이요한,김주연,1924-11-13,사립(법인),1924-11-13,서울특별시교육청 / 강남서초교육지원청,02-556-8737,http://md.happyihome.com,09 : 00 ~ 18 : 00,서울특별시 강남구 도곡로78길 8,['방과후과정'],1,2,2,0,0,0,0,23.0,52.0,52.0,0.0,0.0,0.0,0.0,1,1,0.0,0.0,6.0,0,0,0,0.0,9,0,1,5,5,4,2,0,0,1,2015년 10월,37.497352,127.0587233,강남구,6.0,127.0,21.166666666666668
169,무지개나라유치원,박도영,이혜란,1990-11-21,사립(사인),1990-11-21,서울특별시교육청 / 서부교육지원청,02-302-5258,등록된 홈페이지가 없습니다.,09 : 30 ~ 20 : 00,서울특별시 은평구 가좌로7다길 13,['방과후과정'],2,2,2,0,0,0,0,43.0,30.0,61.0,0.0,0.0,0.0,0.0,1,0,0.0,1.0,10.0,0,0,0,0.0,0,0,1,9,9,1,2,5,2,1,2016년 11월,37.5845474,126.9180933,은평구,11.0,134.0,12.181818181818182
170,무지개영재유치원,박현주,한명남,2014-02-21,사립(법인),2014-03-01,서울특별시교육청 / 남부교육지원청,02-2675-0324,http://www.rainbowi.com,09 : 00 ~ 17 : 00,서울특별시 영등포구 양산로17길 8,['방과후과정'],3,4,5,0,0,0,0,61.0,89.0,110.0,0.0,0.0,0.0,0.0,1,1,0.0,0.0,18.0,0,0,1,0.0,6,0,0,18,18,10,5,3,1,0,2016년 09월,37.5250561,126.8937088,영등포구,18.0,260.0,14.444444444444445
171,무지개유치원,신성재,김희정,2005-04-06,사립(법인),2005-04-06,서울특별시교육청 / 북부교육지원청,02-951-8546,http://www.rainbowch.kid.ph,09 : 20 ~ 17 : 20,서울특별시 노원구 덕릉로94가길 54,['방과후과정'],2,2,2,0,0,0,0,31.0,39.0,48.0,0.0,0.0,0.0,0.0,1,0,0.0,0.0,7.0,0,0,0,2.0,7,0,1,6,6,4,3,0,0,0,2016년 10월,37.66455429999999,127.07869309999998,노원구,9.0,118.0,13.11111111111111
172,무지개유치원,전미영,장은희,1994-09-08,사립(사인),1994-09-08,서울특별시교육청 / 동작관악교육지원청,02-817-9854,등록된 홈페이지가 없습니다.,09 : 00 ~ 18 : 00,서울특별시 동작구 상도로 407-5,['방과후과정'],1,1,1,0,0,0,0,15.0,18.0,20.0,0.0,0.0,0.0,0.0,1,0,0.0,0.0,5.0,0,0,0,0.0,0,0,0,5,5,0,2,2,1,0,2016년 10월,37.493417799999996,126.957297,동작구,5.0,53.0,10.6
173,무학유치원,김정례,김선자,1982-06-23,사립(사인),1982-06-23,서울특별시교육청 / 성동광진교육지원청,02-2299-2402,http://www.moohak.co.kr,09 : 00 ~ 19 : 00,서울특별시 성동구 무학봉15가길 4,['방과후과정'],0,0,1,1,0,0,0,0.0,0.0,19.0,17.0,0.0,0.0,0.0,1,1,0.0,0.0,2.0,0,0,0,0.0,0,0,0,2,2,0,1,0,1,1,2016년 11월,37.5614705,127.0306547,성동구,2.0,36.0,18.0
174,문성유치원,최완영,최완영,1980-03-10,사립(사인),1980-03-10,서울특별시교육청 / 강서양천교육지원청,02-2604-5543,http://www.mschild.net,09 : 00 ~ 20 : 00,서울특별시 강서구 우현로 8,['방과후과정'],2,3,3,0,0,0,0,38.0,57.0,66.0,0.0,0.0,0.0,0.0,1,1,0.0,0.0,14.0,0,0,1,0.0,1,0,1,13,13,1,8,4,1,1,2017년 09월,37.547030799999995,126.8445389,강서구,14.0,161.0,11.5
175,미광유치원,최경숙,김종선,1990-01-09,사립(사인),1990-01-09,서울특별시교육청 / 동부교육지원청,02-493-4874,http://cafe.daum.net/chris625,09 : 00 ~ 20 : 00,서울특별시 중랑구 용마산로115나길 7,['방과후과정'],1,1,1,0,0,0,0,10.0,25.0,33.0,0.0,0.0,0.0,0.0,1,0,0.0,0.0,5.0,0,0,0,0.0,0,0,1,4,4,3,0,1,1,0,2017년 10월,37.59786210000001,127.09659209999998,중랑구,5.0,68.0,13.6
176,미광유치원,최경숙,구성은,1999-12-15,사립(사인),1999-12-15,서울특별시교육청 / 북부교육지원청,02-948-9677,등록된 홈페이지가 없습니다.,09 : 00 ~ 20 : 00,서울특별시 노원구 공릉로34길 62,['방과후과정'],1,1,1,0,0,0,0,8.0,14.0,12.0,0.0,0.0,0.0,0.0,1,0,0.0,0.0,4.0,0,0,0,0.0,0,0,1,3,3,3,1,0,0,0,2016년 11월,37.6233407,127.08304340000001,노원구,4.0,34.0,8.5
177,미도유치원,최순임,최순임,1985-08-06,사립(사인),1985-08-06,서울특별시교육청 / 강서양천교육지원청,02-2651-5079,http://www.midokid.or.kr,09 : 00 ~ 20 : 00,서울특별시 강서구 공항대로58가길 39,"['방과후과정', '온종일돌봄']",1,1,2,0,0,0,0,36.0,33.0,44.0,0.0,0.0,0.0,0.0,1,0,0.0,0.0,7.0,0,0,0,0.0,2,0,1,6,6,2,1,2,1,1,2015년 10월,37.5504187,126.8610512,강서구,7.0,113.0,16.142857142857142
178,미래유치원,조학심,조학심,1994-03-01,사립(사인),1994-03-01,서울특별시교육청 / 강서양천교육지원청,02-2662-1160,등록된 홈페이지가 없습니다.,09 : 30 ~ 19 : 00,서울특별시 강서구 양천로6길 28,['방과후과정'],2,1,1,0,0,0,0,19.0,18.0,24.0,0.0,0.0,0.0,0.0,1,1,0.0,0.0,4.0,0,0,0,0.0,1,0,2,2,2,1,0,0,1,3,2015년 10월,37.570789700000006,126.8068328,강서구,4.0,61.0,15.25
179,미래클유치원,김지언,윤종화,2008-11-21,사립(사인),2008-11-21,서울특별시교육청 / 강서양천교육지원청,02-2667-7979,http://www.miraclekid.co.kr,09 : 00 ~ 20 : 00,서울특별시 강서구 수명로1길 76,"['방과후과정', '저녁돌봄']",3,3,3,0,0,0,0,46.0,55.0,66.0,0.0,0.0,0.0,0.0,1,1,0.0,0.0,13.0,0,0,0,0.0,9,0,0,13,13,9,0,4,0,0,2015년 10월,37.552232200000006,126.8239514,강서구,13.0,167.0,12.846153846153847
180,"미림유치원
                  
                  	(폐원)",이경아,서정림,1986-10-18,사립(사인),1986-10-18,서울특별시교육청 / 서부교육지원청,02-387-6788,등록된 홈페이지가 없습니다.,09 : 00 ~ 17 : 00,서울특별시 은평구 응암로25길 9,['방과후과정'],0,0,0,0,0,1,0,0.0,0.0,0.0,0.0,0.0,14.0,0.0,1,0,0.0,0.0,2.0,0,0,0,0.0,0,0,0,2,2,2,0,0,0,0,2013년 09월,37.5951167,126.91732759999998,은평구,2.0,14.0,7.0
181,미림유치원,김화종,김화영,1985-02-18,사립(사인),1985-02-18,서울특별시교육청 / 동부교육지원청,02-974-5300,http://mirim.kidis.co.kr,09 : 30 ~ 20 : 00,서울특별시 중랑구 공릉로 65,"['방과후과정', '온종일돌봄']",1,1,1,0,0,0,0,13.0,20.0,20.0,0.0,0.0,0.0,0.0,1,0,0.0,0.0,4.0,0,0,0,2.0,0,0,0,2,2,1,1,0,2,0,2015년 10월,37.616323,127.07928170000001,중랑구,6.0,53.0,8.833333333333334
182,미림유치원,박성근,최경선,1982-06-10,사립(사인),1982-06-10,서울특별시교육청 / 남부교육지원청,02-2612-1006,http://www.미림유치원.kr/,09 : 30 ~ 19 : 20,서울특별시 구로구 개봉로18길 37,['방과후과정'],0,0,1,2,0,0,0,0.0,0.0,19.0,72.0,0.0,0.0,0.0,1,1,0.0,1.0,5.0,0,0,0,0.0,5,0,2,4,4,1,1,1,2,1,2015년 09월,37.4908286,126.85795139999999,구로구,6.0,91.0,15.166666666666666
183,미성유치원,박응수,박새밀,1990-01-10,사립(사인),1990-01-10,서울특별시교육청 / 북부교육지원청,02-974-6996,등록된 홈페이지가 없습니다.,09 : 00 ~ 19 : 00,서울특별시 노원구 공릉로59길 28,['방과후과정'],1,1,0,0,0,0,0,18.0,32.0,0.0,0.0,0.0,0.0,0.0,1,0,0.0,1.0,3.0,0,0,0,0.0,1,0,1,3,3,2,0,1,0,1,2016년 09월,37.634779200000004,127.06956299999999,노원구,4.0,50.0,12.5
184,"미성유치원
                  
                  	(폐원)",김신복,노귀남,1989-11-30,사립(사인),1990-08-30,서울특별시교육청 / 남부교육지원청,02-868-9090,등록된 홈페이지가 없습니다.,09 : 00 ~ 18 : 30,서울특별시 금천구 문성로 37,['방과후과정'],1,0,0,8,6,0,0,14.0,0.0,0.0,0.0,0.0,0.0,0.0,1,0,0.0,0.0,0.0,0,0,0,0.0,1,0,1,1,1,-,-,-,-,-,2013년 10월,37.476875899999996,126.9077706,금천구,0.0,14.0,inf
185,미타유치원,최성현,박명애,1991-03-01,사립(사인),1991-03-01,서울특별시교육청 / 성동광진교육지원청,02-2281-7982,등록된 홈페이지가 없습니다.,09 : 00 ~ 17 : 00,서울특별시 성동구 독서당로40길 21,['방과후과정'],1,2,2,0,0,0,0,36.0,48.0,56.0,0.0,0.0,0.0,0.0,1,0,0.0,1.0,9.0,0,0,0,0.0,0,0,0,9,9,9,0,1,0,0,2017년 09월,37.5440479,127.01768340000001,성동구,10.0,140.0,14.0
186,미파유치원,윤기옥,윤기옥,1982-12-10,사립(사인),1982-12-10,서울특별시교육청 / 성동광진교육지원청,02-434-3625,등록된 홈페이지가 없습니다.,09 : 00 ~ 20 : 00,서울특별시 광진구 용마산로 185,['방과후과정'],0,0,0,1,1,0,0,0.0,0.0,0.0,26.0,29.0,0.0,0.0,1,1,0.0,0.0,3.0,0,0,0,2.0,3,0,2,1,1,0,1,1,0,2,2016년 10월,37.5701924,127.08587,광진구,5.0,55.0,11.0
187,밀알유치원,이재식,이재식,1988-02-22,사립(사인),1988-02-22,서울특별시교육청 / 강동송파교육지원청,02-400-4403,등록된 홈페이지가 없습니다.,09 : 00 ~ 20 : 00,서울특별시 송파구 오금로46길 62,['방과후과정'],1,1,1,0,0,0,0,12.0,8.0,20.0,0.0,0.0,0.0,0.0,1,1,0.0,0.0,4.0,0,0,0,0.0,0,0,1,3,3,1,0,1,1,1,2016년 11월,37.492997700000004,127.1316126,송파구,4.0,40.0,10.0
188,바니유치원,김수영,채경란,1990-03-06,사립(사인),1990-03-06,서울특별시교육청 / 남부교육지원청,02-865-4234,등록된 홈페이지가 없습니다.,09 : 00 ~ 17 : 30,서울특별시 구로구 구일로4길 46,"['방과후과정', '온종일돌봄']",1,1,0,0,0,1,0,30.0,30.0,0.0,0.0,0.0,20.0,0.0,1,0,0.0,1.0,6.0,0,0,0,0.0,0,0,2,4,4,5,0,1,1,0,2016년 10월,37.4922564,126.8771784,구로구,7.0,80.0,11.428571428571429
189,바다의별유치원,강선미,장재인,1987-03-01,사립(법인),1987-03-01,서울특별시교육청 / 서부교육지원청,02-387-0325,http://www.rcmbada.co.kr,09 : 30 ~ 18 : 30,서울특별시 은평구 통일로 790-1,['방과후과정'],1,2,2,0,0,0,0,26.0,47.0,49.0,0.0,0.0,0.0,0.0,1,0,0.0,0.0,7.0,0,0,1,1.0,1,0,0,7,7,4,3,1,0,0,2016년 09월,37.6153889,126.9262062,은평구,8.0,122.0,15.25
190,"바자울유치원
                  
                  	(폐원)",이찬우,윤인수,1988-02-16,사립(사인),1988-02-16,서울특별시교육청 / 강서양천교육지원청,02-2693-4123,등록된 홈페이지가 없습니다.,08 : 30 ~ 18 : 00,서울특별시 양천구 월정로 261,['방과후과정'],0,0,0,0,1,0,0,0.0,0.0,0.0,0.0,15.0,0.0,0.0,1,0,0.0,0.0,2.0,0,0,0,0.0,0,0,0,2,2,0,0,1,1,0,2016년 09월,37.540915600000005,126.83091429999999,양천구,2.0,15.0,7.5
191,반디유치원,조철호,심재정,1996-01-10,사립(사인),1996-03-03,서울특별시교육청 / 성북강북교육지원청,02-929-1228,http://www.bandykindergarten.co.kr/,09 : 00 ~ 20 : 00,서울특별시 성북구 성북로4길 52,['방과후과정'],1,1,1,0,0,0,0,24.0,25.0,32.0,0.0,0.0,0.0,0.0,1,1,0.0,0.0,8.0,0,0,0,0.0,0,0,1,7,7,3,1,2,2,0,2017년 10월,37.594766299999996,127.0104379,성북구,8.0,81.0,10.125
192,반디유치원,김난영,김난영,1993-03-02,사립(사인),1993-03-02,서울특별시교육청 / 강남서초교육지원청,02-451-8891,http://www.bandikids.co.kr,09 : 00 ~ 20 : 00,서울특별시 강남구 광평로47길 17,['방과후과정'],1,1,2,0,0,0,0,25.0,34.0,53.0,0.0,0.0,0.0,0.0,1,1,0.0,0.0,7.0,0,0,0,0.0,3,0,2,5,5,2,2,1,0,2,2016년 09월,37.4870719,127.09834740000002,강남구,7.0,112.0,16.0
194,반석유치원,강수명,강수명,2012-12-04,사립(사인),2013-03-01,서울특별시교육청 / 강동송파교육지원청,02-485-8540,등록된 홈페이지가 없습니다.,09 : 30 ~ 18 : 00,서울특별시 강동구 양재대로124길 89-18,"['방과후과정', '아침돌봄']",2,1,1,0,0,0,0,32.0,26.0,21.0,0.0,0.0,0.0,0.0,1,0,0.0,0.0,5.0,0,0,0,1.0,3,0,1,5,5,2,1,2,1,0,2017년 11월,37.5427864,127.1473249,강동구,6.0,79.0,13.166666666666666
195,반포성모유치원,염수정,박영선,1980-01-29,사립(법인),1980-01-29,서울특별시교육청 / 강남서초교육지원청,02-537-4224,http://www.banposm.com,09 : 00 ~ 17 : 30,서울특별시 서초구 신반포로15길 18,['방과후과정'],1,1,1,0,0,0,0,18.0,22.0,28.0,0.0,0.0,0.0,0.0,1,0,0.0,0.0,4.0,0,0,0,0.0,0,0,2,2,2,0,1,1,0,2,2015년 10월,37.504887700000005,126.99445320000001,서초구,4.0,68.0,17.0
196,반포자이유치원,김현숙,강민신,2010-03-03,사립(사인),2010-03-03,서울특별시교육청 / 강남서초교육지원청,02-596-6668,등록된 홈페이지가 없습니다.,10 : 00 ~ 14 : 00,서울특별시 서초구 신반포로 270,['해당없음'],3,2,2,0,0,0,0,58.0,48.0,48.0,0.0,0.0,0.0,0.0,1,1,0.0,0.0,11.0,0,0,0,0.0,11,0,3,8,8,3,0,5,3,0,2015년 10월,37.5064194,127.014218,서초구,11.0,154.0,14.0
197,밤비니유치원,김순정,김순정,2015-03-01,사립(사인),2015-03-05,서울특별시교육청 / 강서양천교육지원청,02-2664-7942,등록된 홈페이지가 없습니다.,09 : 00 ~ 17 : 00,서울특별시 강서구 남부순환로7길 39,['방과후과정'],3,2,2,0,0,0,0,48.0,52.0,52.0,0.0,0.0,0.0,0.0,1,1,0.0,0.0,13.0,0,0,0,0.0,0,0,1,12,12,5,2,5,0,1,2020년 06월,37.558950700000004,126.80964640000002,강서구,13.0,152.0,11.692307692307692
198,방화이화유치원,나병삼,최중희,1983-04-01,사립(사인),1983-04-01,서울특별시교육청 / 강서양천교육지원청,02-2662-2017,등록된 홈페이지가 없습니다.,09 : 00 ~ 17 : 00,서울특별시 강서구 양천로17길 4-55,"['방과후과정', '온종일돌봄']",1,2,1,0,0,0,0,22.0,58.0,30.0,0.0,0.0,0.0,0.0,1,0,0.0,2.0,6.0,0,0,0,0.0,5,0,3,5,5,3,1,3,0,1,2015년 11월,37.573989000000005,126.81351289999999,강서구,8.0,110.0,13.75
199,배꽃유치원,황선명,황선명,1989-01-27,사립(사인),1989-03-09,서울특별시교육청 / 동작관악교육지원청,02-878-7766,http://www.baekkot.com,09 : 00 ~ 22 : 00,서울특별시 관악구 봉천로29길 47,"['방과후과정', '온종일돌봄']",2,2,2,0,0,0,0,47.0,53.0,57.0,0.0,0.0,0.0,0.0,1,0,0.0,0.0,10.0,0,0,1,1.0,6,0,0,10,10,3,3,5,0,0,2015년 10월,37.4855674,126.9419389,관악구,11.0,157.0,14.272727272727273
200,배영유치원,우영수,문세라,1961-04-10,사립(사인),1961-04-10,서울특별시교육청 / 서부교육지원청,02-334-3405,http://www.byk.kg.kr,09 : 00 ~ 20 : 00,서울특별시 마포구 잔다리로6길 11,['방과후과정'],1,1,1,0,0,0,0,15.0,27.0,30.0,0.0,0.0,0.0,0.0,1,1,0.0,0.0,8.0,0,0,0,0.0,0,0,1,7,7,4,2,1,1,0,2016년 10월,37.552417999999996,126.91981299999999,마포구,8.0,72.0,9.0
201,배화여자대학교 부속 배화유치원,학교법인 배화학원,유향선,1917-04-01,사립(법인),1917-04-01,서울특별시교육청 / 중부교육지원청,02-737-1433,http://www.baewha.ac.kr/mbs/child,09 : 00 ~ 17 : 00,서울특별시 종로구 필운대로1길 34,['방과후과정'],1,1,1,0,0,0,0,22.0,26.0,29.0,0.0,0.0,0.0,0.0,1,1,0.0,0.0,3.0,0,0,0,0.0,1,0,1,2,2,3,0,0,0,1,2016년 10월,37.579389500000005,126.96538159999999,종로구,3.0,77.0,25.666666666666668
203,백상유치원,이삼님,이삼님,1988-12-13,사립(사인),1988-12-13,서울특별시교육청 / 남부교육지원청,02-803-5485,등록된 홈페이지가 없습니다.,09 : 00 ~ 18 : 00,서울특별시 금천구 탑골로3길 50,['방과후과정'],1,1,1,0,0,0,0,14.0,18.0,19.0,0.0,0.0,0.0,0.0,1,0,0.0,0.0,4.0,0,0,0,0.0,0,0,0,4,4,1,1,1,1,0,2016년 10월,37.45338579999999,126.9140551,금천구,4.0,51.0,12.75
205,"백운유치원
                  
                  	(폐원)",-,-,1989-02-15,사립(사인),1989-02-15,서울특별시교육청 / 북부교육지원청,02-935-3344,http://www.baikwoon.co.kr,-,서울특별시 노원구 한글비석로 477,"['방과후과정', '온종일돌봄']",0,0,0,0,0,0,0,0.0,0.0,0.0,0.0,0.0,0.0,0.0,1,1,0.0,0.0,13.0,0,0,0,0.0,1,0,5,8,8,-,-,-,-,-,2012년 10월,37.664050700000004,127.0649632,노원구,13.0,0.0,0.0
206,백주유치원,김재영,이명숙,1966-01-27,사립(법인),1966-01-27,서울특별시교육청 / 동부교육지원청,02-2249-5170,http://cafe.daum.net/baekjukids,09 : 00 ~ 19 : 00,서울특별시 동대문구 서울시립대로18길 19,['방과후과정'],1,1,1,0,0,0,0,16.0,23.0,30.0,0.0,0.0,0.0,0.0,1,0,0.0,1.0,4.0,0,0,0,0.0,0,0,0,5,5,2,0,3,0,0,2015년 11월,37.5805864,127.0527865,동대문구,5.0,69.0,13.8
207,백합유치원,이준성,옥인혜,1986-04-01,사립(법인),1986-04-01,서울특별시교육청 / 서부교육지원청,02-353-0855,http://www.bakwhap.kids.com,09 : 00 ~ 19 : 00,서울특별시 은평구 연서로14길 14-5,['방과후과정'],2,1,2,0,0,0,0,27.0,26.0,53.0,0.0,0.0,0.0,0.0,1,1,0.0,0.0,8.0,0,0,0,0.0,0,0,3,5,5,2,1,2,1,2,2015년 10월,37.6081619,126.9173492,은평구,8.0,106.0,13.25
208,버들유치원,김선화,진희,1984-02-28,사립(사인),1984-02-28,서울특별시교육청 / 남부교육지원청,02-2614-5393,등록된 홈페이지가 없습니다.,09 : 30 ~ 18 : 00,서울특별시 구로구 오류로8길 40,['방과후과정'],0,0,0,0,0,1,0,0.0,0.0,0.0,0.0,0.0,32.0,0.0,1,0,0.0,0.0,3.0,0,0,0,0.0,0,0,0,3,3,3,0,0,0,0,2016년 10월,37.491640000000004,126.8428088,구로구,3.0,32.0,10.666666666666666
209,벧엘유치원,이연숙,이연숙,1994-03-01,사립(사인),1994-03-01,서울특별시교육청 / 성동광진교육지원청,02-2281-0138,http://www.bmschool.com,09 : 00 ~ 18 : 00,서울특별시 성동구 행당로6길 97,"['방과후과정', '아침돌봄']",0,0,0,0,0,8,0,0.0,0.0,0.0,0.0,0.0,286.0,0.0,1,1,2.0,0.0,17.0,0,0,1,0.0,3,2,13,4,4,1,0,3,0,16,2014년 09월,37.5559126,127.0290958,성동구,19.0,286.0,15.052631578947368
210,벧엘유치원,조규호,어금주,1980-01-21,사립(사인),1980-01-21,서울특별시교육청 / 서부교육지원청,02-333-9941,http://happybethel.co.kr,09 : 00 ~ 20 : 00,서울특별시 서대문구 연희로10길 17-6,['방과후과정'],2,2,2,0,0,0,0,34.0,40.0,47.0,0.0,0.0,0.0,0.0,1,0,0.0,0.0,9.0,0,0,0,0.0,6,0,3,6,6,4,0,2,1,2,2015년 09월,37.5663234,126.93227069999999,서대문구,9.0,121.0,13.444444444444445
211,벧엘유치원,대한예수교장로회서울노회유지재단,박정순,1959-12-16,사립(법인),2007-03-01,서울특별시교육청 / 동작관악교육지원청,02-814-1482,http://www.bethelkids.or.kr,09 : 00 ~ 17 : 00,서울특별시 동작구 장승배기로20길 46-3,['방과후과정'],2,2,2,0,0,0,0,41.0,50.0,46.0,0.0,0.0,0.0,0.0,1,0,0.0,0.0,7.0,0,0,0,0.0,5,0,2,5,5,0,3,1,0,3,2015년 11월,37.5089816,126.9426084,동작구,7.0,137.0,19.571428571428573
212,별나라유치원,김명숙,김명숙,1989-09-30,사립(사인),1989-09-30,서울특별시교육청 / 강동송파교육지원청,02-406-4915,등록된 홈페이지가 없습니다.,09 : 00 ~ 19 : 30,서울특별시 송파구 새말로8길 14,['방과후과정'],0,0,0,1,1,0,0,0.0,0.0,0.0,30.0,33.0,0.0,0.0,1,1,0.0,0.0,4.0,0,0,0,0.0,0,0,1,3,3,1,0,0,2,1,2016년 09월,37.481514399999995,127.12584,송파구,4.0,63.0,15.75
214,보고유치원,서유리,서유리,2001-04-10,사립(사인),2001-04-10,서울특별시교육청 / 북부교육지원청,02-912-0570,등록된 홈페이지가 없습니다.,09 : 00 ~ 19 : 30,서울특별시 노원구 석계로13길 23-14,['방과후과정'],1,1,2,0,0,0,0,24.0,20.0,43.0,0.0,0.0,0.0,0.0,1,0,0.0,0.0,7.0,0,0,0,0.0,0,0,2,5,5,3,0,1,1,2,2017년 10월,37.61956,127.0613815,노원구,7.0,87.0,12.428571428571429
215,보나유치원,최용기,최용기,1993-03-08,사립(법인),1993-05-01,서울특별시교육청 / 북부교육지원청,02-956-3197,등록된 홈페이지가 없습니다.,09 : 00 ~ 19 : 00,서울특별시 도봉구 해등로 307,['방과후과정'],1,1,2,0,0,0,0,29.0,30.0,52.0,0.0,0.0,0.0,0.0,1,1,0.0,0.0,8.0,0,0,1,5.0,1,0,2,6,6,3,0,3,0,3,2015년 10월,37.6568265,127.02199080000001,도봉구,13.0,111.0,8.538461538461538
216,보라유치원,위성순,위성순,1995-07-22,사립(사인),1995-07-22,서울특별시교육청 / 강서양천교육지원청,02-2658-1154,등록된 홈페이지가 없습니다.,09 : 00 ~ 19 : 00,서울특별시 강서구 공항대로39길 100,['방과후과정'],2,2,2,0,0,0,0,40.0,31.0,37.0,0.0,0.0,0.0,0.0,1,0,0.0,2.0,7.0,0,0,1,6.0,1,0,1,8,8,2,2,0,1,5,2014년 10월,37.562539,126.8465439,강서구,15.0,108.0,7.2
217,보람유치원,신조광,신조광,1984-12-27,사립(법인),1984-12-27,서울특별시교육청 / 서부교육지원청,02-352-7615,등록된 홈페이지가 없습니다.,09 : 00 ~ 19 : 00,서울특별시 은평구 갈현로4길 42,['방과후과정'],1,1,2,0,0,0,0,20.0,24.0,54.0,0.0,0.0,0.0,0.0,1,0,0.0,0.0,8.0,0,0,0,1.0,0,0,1,6,6,4,1,1,0,2,2016년 10월,37.6000472,126.91420649999999,은평구,9.0,98.0,10.88888888888889
218,보림유치원,김현자,신미선,1994-01-22,사립(사인),1994-01-22,서울특별시교육청 / 서부교육지원청,02-389-3023,https://brkids.happyihome.com,09 : 00 ~ 20 : 00,서울특별시 은평구 연서로17길 35-1,['방과후과정'],1,2,1,0,0,0,0,12.0,12.0,22.0,0.0,0.0,0.0,0.0,1,0,0.0,0.0,4.0,0,0,0,4.0,0,0,2,4,4,2,2,0,0,0,2014년 10월,37.613515899999996,126.9135372,은평구,8.0,46.0,5.75
219,보배유치원,장현운,송영자,1995-11-15,사립(사인),1995-11-15,서울특별시교육청 / 북부교육지원청,02-977-2727,http://www.ibobae.co.kr,09 : 00 ~ 19 : 30,서울특별시 노원구 마들로3길 37,['방과후과정'],2,1,1,0,0,0,0,26.0,29.0,26.0,0.0,0.0,0.0,0.0,1,0,0.0,0.0,6.0,0,0,0,0.0,6,0,1,5,5,0,3,0,2,1,2016년 11월,37.6292875,127.06262209999998,노원구,6.0,81.0,13.5
220,보성유치원,김문자,박도영,1997-04-09,사립(사인),1997-04-09,서울특별시교육청 / 성동광진교육지원청,02-453-9712,http://www.bosungkid.co.kr,09 : 00 ~ 19 : 00,서울특별시 광진구 아차산로 552,['방과후과정'],2,1,1,0,0,0,0,32.0,32.0,32.0,0.0,0.0,0.0,0.0,1,1,0.0,0.0,8.0,0,0,0,0.0,1,0,3,5,5,3,1,1,0,3,2015년 11월,37.543363799999995,127.10445849999999,광진구,8.0,96.0,12.0
221,복자유치원,(재)천주교서울대교구,김옥석,1953-11-27,사립(법인),1953-11-27,서울특별시교육청 / 중부교육지원청,02-319-2915,http://www.bokja.co.kr,09 : 40 ~ 17 : 00,서울특별시 용산구 후암로34길 21-8,['방과후과정'],2,1,1,0,0,0,0,34.0,21.0,31.0,0.0,0.0,0.0,0.0,1,1,0.0,0.0,6.0,0,0,0,0.0,0,0,2,4,4,0,0,2,3,1,2016년 11월,37.5519419,126.9782815,용산구,6.0,86.0,14.333333333333334
222,봄내유치원,김준태,박완순,1995-01-09,사립(사인),1995-01-09,서울특별시교육청 / 동부교육지원청,02-438-9711,http://bomnae.or.kr,09 : 00 ~ 17 : 00,서울특별시 중랑구 면목로61길 50,"['방과후과정', '아침돌봄']",2,3,3,0,0,0,0,45.0,55.0,79.0,0.0,0.0,0.0,0.0,1,1,0.0,1.0,13.0,0,0,0,0.0,5,0,1,13,13,4,3,5,2,0,2014년 10월,37.5859346,127.0855348,중랑구,14.0,179.0,12.785714285714286
223,봄샘유치원,이희선,이희선,2005-03-15,사립(법인),2005-03-15,서울특별시교육청 / 중부교육지원청,02-764-3210,http://bomsaem.kidis.co.kr,09 : 00 ~ 18 : 00,서울특별시 종로구 율곡로 264,"['방과후과정', '온종일돌봄']",1,1,1,0,0,0,0,10.0,28.0,24.0,0.0,0.0,0.0,0.0,1,0,0.0,1.0,4.0,0,0,0,1.0,0,0,1,4,4,1,1,1,0,2,2016년 11월,37.573321899999996,127.00660790000002,종로구,6.0,62.0,10.333333333333334
224,불광유치원,대한불교조계종 대각회,임정희,1986-12-04,사립(법인),1987-03-01,서울특별시교육청 / 강동송파교육지원청,02-422-1311,http://www.bulkwangkids.com,08 : 50 ~ 18 : 00,서울특별시 송파구 송파대로49길 23,['방과후과정'],1,2,2,0,0,0,0,36.0,52.0,52.0,0.0,0.0,0.0,0.0,1,0,0.0,0.0,8.0,0,0,0,0.0,6,0,2,6,6,4,3,0,0,1,2016년 10월,37.50686339999999,127.10210890000002,송파구,8.0,140.0,17.5
225,빛나라유치원,이은숙,이은숙,2006-01-03,사립(사인),2006-01-03,서울특별시교육청 / 성북강북교육지원청,02-928-2004,등록된 홈페이지가 없습니다.,09 : 00 ~ 20 : 00,서울특별시 성북구 종암로9길 78,['방과후과정'],1,1,1,0,0,0,0,11.0,14.0,16.0,0.0,0.0,0.0,0.0,1,0,0.0,0.0,4.0,0,0,0,0.0,0,0,1,3,3,0,4,0,0,0,2015년 10월,37.597344299999996,127.032956,성북구,4.0,41.0,10.25
226,빛나유치원,박자옥,박자옥,1996-03-30,사립(법인),1996-03-30,서울특별시교육청 / 강서양천교육지원청,02-2651-7355,http://bitna.info,09 : 00 ~ 20 : 00,서울특별시 양천구 목동로 212,['방과후과정'],2,2,2,0,0,0,0,37.0,36.0,33.0,0.0,0.0,0.0,0.0,1,0,1.0,8.0,0.0,0,0,1,0.0,1,1,1,6,6,3,3,1,1,1,2015년 09월,37.5274586,126.86732409999999,양천구,9.0,106.0,11.777777777777779
227,빛나유치원,탁용균,임미경,1984-09-29,사립(법인),1984-09-29,서울특별시교육청 / 동부교육지원청,02-2212-0406,등록된 홈페이지가 없습니다.,09 : 00 ~ 22 : 00,서울특별시 동대문구 전농로23길 47,"['방과후과정', '온종일돌봄']",1,0,0,0,1,0,0,8.0,0.0,0.0,0.0,15.0,0.0,0.0,1,0,0.0,0.0,2.0,0,0,0,0.0,0,0,0,2,2,0,0,2,0,0,2016년 09월,37.57908279999999,127.0538358,동대문구,2.0,23.0,11.5
228,사군자유치원,한은진,한은진,1985-05-13,사립(사인),1985-05-15,서울특별시교육청 / 동부교육지원청,02-2245-5801,등록된 홈페이지가 없습니다.,09 : 00 ~ 20 : 00,서울특별시 동대문구 장한로5길 51,['방과후과정'],1,0,0,0,1,0,0,19.0,0.0,0.0,0.0,31.0,0.0,0.0,1,0,0.0,0.0,4.0,0,0,0,0.0,1,0,1,3,3,1,1,1,0,1,2016년 09월,37.5650805,127.0637612,동대문구,4.0,50.0,12.5
229,사라유치원,이순희,강연미,1983-03-03,사립(사인),1983-03-03,서울특별시교육청 / 북부교육지원청,02-974-7766,http://cafe.naver.com/sarayouchwon,09 : 00 ~ 19 : 00,서울특별시 노원구 동일로198가길 13,['방과후과정'],1,2,2,0,0,0,0,27.0,37.0,54.0,0.0,0.0,0.0,0.0,1,0,0.0,0.0,7.0,0,0,0,0.0,0,0,2,6,6,3,0,1,4,0,2015년 10월,37.6298477,127.07193559999999,노원구,7.0,118.0,16.857142857142858
230,사랑샘유치원,이규식,김귀례,1992-09-07,사립(사인),1992-06-04,서울특별시교육청 / 북부교육지원청,02-932-2843,등록된 홈페이지가 없습니다.,09 : 00 ~ 19 : 00,서울특별시 노원구 한글비석로 325,['방과후과정'],1,1,1,0,0,0,0,9.0,11.0,27.0,0.0,0.0,0.0,0.0,1,0,0.0,0.0,5.0,0,0,0,0.0,0,0,1,4,4,1,2,2,0,0,2016년 10월,37.6564075,127.077699,노원구,5.0,47.0,9.4
231,사랑유치원,김종호,조경숙,1997-10-13,사립(사인),1997-03-03,서울특별시교육청 / 동부교육지원청,02-957-5330,등록된 홈페이지가 없습니다.,09 : 00 ~ 20 : 00,서울특별시 동대문구 제기로 131,['방과후과정'],1,2,2,0,0,0,0,24.0,40.0,57.0,0.0,0.0,0.0,0.0,1,1,0.0,1.0,7.0,0,0,0,0.0,0,0,2,6,6,4,3,1,1,0,2014년 10월,37.58797070000001,127.0492429,동대문구,8.0,121.0,15.125
232,사랑유치원,송종석,김말례,1972-12-04,사립(사인),1972-12-04,서울특별시교육청 / 성북강북교육지원청,02-913-4114,등록된 홈페이지가 없습니다.,09 : 00 ~ 20 : 00,서울특별시 성북구 월곡로7길 72,['방과후과정'],1,2,2,0,0,0,0,47.0,61.0,64.0,0.0,0.0,0.0,0.0,1,1,0.0,0.0,13.0,0,0,0,0.0,0,0,8,5,5,1,1,3,1,7,2015년 09월,37.5997815,127.03635009999999,성북구,13.0,172.0,13.23076923076923
233,사랑유치원,권미경,권미경,2002-02-27,사립(사인),2002-03-01,서울특별시교육청 / 동작관악교육지원청,02-822-0102,"http://www,sarangkid.co.kr",09 : 30 ~ 22 : 00,서울특별시 동작구 여의대방로24나길 6,['방과후과정'],2,1,2,0,0,0,0,25.0,19.0,32.0,0.0,0.0,0.0,0.0,1,0,0.0,0.0,7.0,0,0,0,0.0,0,0,2,5,5,3,0,3,1,0,2016년 10월,37.498361700000004,126.9211621,동작구,7.0,76.0,10.857142857142858
234,사랑유치원,조정녀,조정녀,1989-02-15,사립(사인),1989-02-15,서울특별시교육청 / 남부교육지원청,02-2634-7918,등록된 홈페이지가 없습니다.,09 : 00 ~ 20 : 00,서울특별시 구로구 신도림로11가길 36,['방과후과정'],2,2,2,0,0,0,0,49.0,52.0,55.0,0.0,0.0,0.0,0.0,1,1,0.0,0.0,11.0,0,0,0,0.0,3,0,0,11,11,4,1,4,2,0,2015년 09월,37.50727020000001,126.87649440000001,구로구,11.0,156.0,14.181818181818182
235,사랑유치원,이주선,김연희,2001-12-17,사립(사인),2001-12-17,서울특별시교육청 / 북부교육지원청,02-956-2666,등록된 홈페이지가 없습니다.,08 : 50 ~ 19 : 00,서울특별시 도봉구 마들로 620,['방과후과정'],1,1,1,0,0,0,0,16.0,20.0,13.0,0.0,0.0,0.0,0.0,1,0,0.0,0.0,5.0,0,0,0,0.0,0,0,2,3,3,4,0,1,0,0,2015년 11월,37.664974,127.04815500000001,도봉구,5.0,49.0,9.8
236,사슴유치원,이주용,이주용,1988-03-31,사립(사인),1988-03-31,서울특별시교육청 / 강서양천교육지원청,02-2605-1357,등록된 홈페이지가 없습니다.,09 : 00 ~ 20 : 00,서울특별시 양천구 곰달래로9길 12,['방과후과정'],1,1,2,0,0,0,0,20.0,18.0,41.0,0.0,0.0,0.0,0.0,1,1,0.0,0.0,7.0,0,0,0,0.0,1,0,0,7,7,5,0,0,2,0,2016년 10월,37.530862,126.83584009999998,양천구,7.0,79.0,11.285714285714286
237,산내들유치원,윤영임,안경옥,1996-05-16,사립(사인),1996-05-16,서울특별시교육청 / 북부교육지원청,02-978-8882,등록된 홈페이지가 없습니다.,09 : 00 ~ 18 : 00,서울특별시 노원구 공릉로46길 32,['방과후과정'],1,0,0,0,0,0,0,5.0,0.0,0.0,0.0,0.0,0.0,0.0,1,0,0.0,0.0,1.0,0,0,0,0.0,0,0,0,1,1,1,0,0,0,0,2014년 10월,37.626823,127.0817341,노원구,1.0,5.0,5.0
238,산정현유치원,김성희,김성희,1998-03-25,사립(법인),1998-03-25,서울특별시교육청 / 동부교육지원청,02-963-0371,등록된 홈페이지가 없습니다.,09 : 00 ~ 20 : 00,서울특별시 동대문구 회기로23가길 33,['방과후과정'],1,2,2,0,0,0,0,20.0,27.0,37.0,0.0,0.0,0.0,0.0,1,1,0.0,0.0,8.0,0,0,0,0.0,0,0,1,7,7,5,1,1,0,1,2015년 10월,37.5926389,127.05405149999999,동대문구,8.0,84.0,10.5
239,살레시오성미유치원,재단법인 한국천주교 살레시오수녀회,이미영,1970-11-16,사립(법인),1970-11-16,서울특별시교육청 / 남부교육지원청,02-845-7306,http://www.smi.or.kr,09 : 00 ~ 17 : 00,서울특별시 영등포구 신길로 93,['방과후과정'],3,3,3,0,0,0,0,63.0,78.0,81.0,0.0,0.0,0.0,0.0,1,0,0.0,2.0,15.0,0,0,0,0.0,9,0,6,11,11,5,3,4,2,3,2014년 10월,37.501423200000005,126.90887430000001,영등포구,17.0,222.0,13.058823529411764
240,삼성그린유치원,신고산,김승희,1997-01-10,사립(사인),1997-01-10,서울특별시교육청 / 서부교육지원청,02-3273-3838,http://samsungi.kid.ph,09 : 00 ~ 19 : 00,서울특별시 마포구 도화4길 62,['방과후과정'],2,2,2,0,0,0,0,45.0,51.0,55.0,0.0,0.0,0.0,0.0,1,1,0.0,0.0,9.0,0,0,0,0.0,1,0,2,7,7,3,3,1,1,1,2015년 09월,37.540034000000006,126.9503703,마포구,9.0,151.0,16.77777777777778
241,삼성유치원,임기선,안성란,2005-02-05,사립(사인),2005-02-05,서울특별시교육청 / 강동송파교육지원청,02-3401-5678,등록된 홈페이지가 없습니다.,09 : 00 ~ 19 : 00,서울특별시 송파구 문정로 83,['방과후과정'],2,2,2,0,0,0,0,50.0,53.0,58.0,0.0,0.0,0.0,0.0,1,1,0.0,0.0,12.0,0,0,1,0.0,1,0,3,10,10,4,4,2,2,1,2014년 10월,37.4905107,127.1303692,송파구,12.0,161.0,13.416666666666666
242,삼성유치원,윤장용,안소영,1968-10-01,사립(사인),1968-10-01,서울특별시교육청 / 서부교육지원청,02-372-2211,http://kindergarten.co.kr,09 : 00 ~ 18 : 30,서울특별시 서대문구 증가로20나길 12,['방과후과정'],2,2,2,0,0,0,0,41.0,49.0,52.0,0.0,0.0,0.0,0.0,1,0,0.0,0.0,10.0,0,0,1,0.0,9,0,0,10,10,7,1,2,0,1,2015년 11월,37.581562700000006,126.91931159999999,서대문구,10.0,142.0,14.2
243,삼성유치원,심성훈,권수경,2013-11-25,사립(사인),2013-11-25,서울특별시교육청 / 동부교육지원청,02-2213-0080,http://www.sskinder.com,09 : 00 ~ 17 : 00,서울특별시 동대문구 사가정로 65,['방과후과정'],3,3,2,0,0,0,0,51.0,49.0,42.0,0.0,0.0,0.0,0.0,1,0,0.0,0.0,12.0,0,0,0,0.0,1,0,2,10,10,5,1,6,0,0,2016년 10월,37.5755269,127.051543,동대문구,12.0,142.0,11.833333333333334
245,삼육대학교부속유치원,황춘광,이미화 원장대행,1991-01-20,사립(법인),1991-03-11,서울특별시교육청 / 북부교육지원청,02-3399-1173,http://www.sykinder.co.kr,09 : 00 ~ 19 : 00,서울특별시 노원구 화랑로 815,['방과후과정'],2,2,2,0,1,1,0,44.0,48.0,52.0,0.0,20.0,20.0,0.0,0,0,0.0,2.0,11.0,0,0,0,0.0,12,0,4,8,8,2,3,3,1,4,2016년 09월,37.6431424,127.10625120000002,노원구,13.0,184.0,14.153846153846153
246,삼풍유치원,안소자,이남희,2009-11-25,사립(법인),2010-03-02,서울특별시교육청 / 북부교육지원청,02-992-3171,등록된 홈페이지가 없습니다.,09 : 00 ~ 19 : 00,서울특별시 도봉구 노해로63가길 101,['방과후과정'],3,4,3,0,0,0,0,72.0,96.0,73.0,0.0,0.0,0.0,0.0,1,1,0.0,2.0,18.0,0,0,1,0.0,2,0,1,18,18,12,5,3,1,1,2016년 09월,37.656749,127.04563859999999,도봉구,20.0,241.0,12.05
247,상도유치원,박권배,이영자,1956-04-10,사립(법인),1956-04-10,서울특별시교육청 / 동작관악교육지원청,02-815-3319,http://cafe.naver.com/sangdo3319,09 : 30 ~ 18 : 00,서울특별시 동작구 상도로47길 53,['방과후과정'],1,1,1,0,0,0,0,10.0,19.0,24.0,0.0,0.0,0.0,0.0,1,0,0.0,0.0,4.0,0,0,0,1.0,2,0,0,4,4,1,0,0,3,0,2016년 11월,37.50211710000001,126.95191200000001,동작구,5.0,53.0,10.6
248,상명사대부속유치원,학교법인 상명학원,전승준,1966-02-28,사립(법인),1966-02-28,서울특별시교육청 / 중부교육지원청,02-396-1602,http://www.smu-kindergarten.com,09 : 40 ~ 17 : 40,서울특별시 종로구 홍지문2길 1,['방과후과정'],2,2,2,0,0,0,0,35.0,52.0,44.0,0.0,0.0,0.0,0.0,1,1,0.0,0.0,7.0,0,0,0,4.0,5,0,3,8,8,0,0,0,3,4,2016년 10월,37.6005802,126.956708,종로구,11.0,131.0,11.909090909090908
249,상아유치원,이영옥,윤정중,1983-01-15,사립(사인),1983-01-15,서울특별시교육청 / 동작관악교육지원청,02-822-6901,http://cafe.naver.com/sangakid,09 : 00 ~ 18 : 00,서울특별시 동작구 양녕로26길 15,['방과후과정'],0,0,1,1,0,0,0,0.0,0.0,19.0,23.0,0.0,0.0,0.0,1,0,0.0,0.0,4.0,0,0,0,0.0,0,0,1,3,3,0,0,2,2,0,2016년 10월,37.4975519,126.9444263,동작구,4.0,42.0,10.5
250,상아유치원,유순례,유순례,1988-03-04,사립(사인),1988-03-02,서울특별시교육청 / 강동송파교육지원청,02-417-2972,등록된 홈페이지가 없습니다.,09 : 00 ~ 20 : 00,서울특별시 송파구 백제고분로32길 15,['방과후과정'],1,1,2,0,0,0,0,24.0,29.0,55.0,0.0,0.0,0.0,0.0,1,1,0.0,0.0,6.0,0,0,0,0.0,6,0,3,3,3,4,0,0,0,2,2016년 10월,37.5008846,127.09522949999999,송파구,6.0,108.0,18.0
252,상아유치원,이경순,박현주,1988-01-31,사립(사인),1988-01-31,서울특별시교육청 / 강서양천교육지원청,02-2697-7975,등록된 홈페이지가 없습니다.,09 : 00 ~ 17 : 00,서울특별시 양천구 지양로5길 5,['방과후과정'],0,0,0,0,1,0,0,0.0,0.0,0.0,0.0,7.0,0.0,0.0,1,0,0.0,0.0,0.0,0,0,0,0.0,1,0,0,0,0,0,1,0,0,0,2016년 11월,37.520571399999994,126.8338382,양천구,0.0,7.0,inf
253,상원유치원,이우원,김지연,1989-02-01,사립(사인),1991-01-19,서울특별시교육청 / 북부교육지원청,02-949-0217,등록된 홈페이지가 없습니다.,09 : 00 ~ 19 : 00,서울특별시 노원구 노원로19길 33,['방과후과정'],2,2,2,0,0,0,0,44.0,46.0,52.0,0.0,0.0,0.0,0.0,1,1,0.0,0.0,8.0,0,0,0,0.0,0,0,0,8,8,1,5,2,0,0,2015년 10월,37.6460967,127.0712379,노원구,8.0,142.0,17.75
254,"새길유치원
                  
                  	(폐원)",신정민,한숙화,1991-09-01,사립(사인),1991-09-01,서울특별시교육청 / 성동광진교육지원청,02-463-5508,등록된 홈페이지가 없습니다.,09 : 00 ~ 20 : 00,서울특별시 성동구 뚝섬로4길 16-9,['방과후과정'],0,0,0,0,0,1,0,0.0,0.0,0.0,0.0,0.0,19.0,0.0,1,1,0.0,0.0,1.0,0,0,0,0.0,0,0,0,1,1,0,0,1,0,1,2016년 10월,37.5389724,127.04994909999999,성동구,1.0,19.0,19.0
256,새나유치원,김동애,김동애,2009-12-16,사립(사인),2009-12-16,서울특별시교육청 / 서부교육지원청,02-304-3130,등록된 홈페이지가 없습니다.,09 : 00 ~ 19 : 00,서울특별시 서대문구 가재울로 45,['방과후과정'],2,2,2,0,0,0,0,46.0,52.0,51.0,0.0,0.0,0.0,0.0,1,0,0.0,0.0,9.0,0,0,1,0.0,4,0,2,7,7,7,1,0,0,2,2015년 10월,37.5747622,126.92054879999999,서대문구,9.0,149.0,16.555555555555557
257,새두산유치원,정인숙,정인숙,1998-12-19,사립(사인),1999-03-10,서울특별시교육청 / 남부교육지원청,02-854-4133,등록된 홈페이지가 없습니다.,09 : 00 ~ 19 : 30,서울특별시 구로구 도림로 59,['방과후과정'],2,2,2,0,0,0,0,31.0,35.0,53.0,0.0,0.0,0.0,0.0,1,1,0.0,0.0,6.0,0,0,0,3.0,1,0,2,6,6,2,0,3,0,1,2016년 10월,37.4892609,126.8892355,구로구,9.0,119.0,13.222222222222221
258,"새롬유치원
                  
                  	(폐원)",김선숙,김선숙,1988-02-16,사립(사인),1988-03-01,서울특별시교육청 / 성북강북교육지원청,02-983-5537,http://cafe.naver.com/saeromekids,09 : 00 ~ 18 : 00,서울특별시 강북구 도봉로34길 66,['방과후과정'],0,0,1,1,0,0,0,0.0,0.0,17.0,35.0,0.0,0.0,0.0,1,0,0.0,0.0,4.0,0,0,0,0.0,0,0,1,3,3,2,0,0,1,1,2015년 10월,37.62253130000001,127.03169070000001,강북구,4.0,52.0,13.0
260,새보람유치원,한상욱,정희자,1990-12-01,사립(사인),1990-12-01,서울특별시교육청 / 서부교육지원청,02-358-1019,http://cafe.daum.net/saeboram,09 : 30 ~ 20 : 00,서울특별시 은평구 불광로 107,['방과후과정'],1,2,1,0,0,0,0,18.0,40.0,32.0,0.0,0.0,0.0,0.0,1,1,0.0,0.0,6.0,0,0,0,0.0,1,0,2,3,3,4,0,0,0,3,2016년 10월,37.616263399999994,126.93261609999999,은평구,6.0,90.0,15.0
261,새봄유치원,조세윤,조남희,1981-08-05,사립(사인),1981-08-05,서울특별시교육청 / 북부교육지원청,02-951-1191,등록된 홈페이지가 없습니다.,09 : 00 ~ 19 : 00,서울특별시 노원구 동일로245길 162,['방과후과정'],2,2,2,0,0,0,0,32.0,34.0,48.0,0.0,0.0,0.0,0.0,1,1,0.0,0.0,9.0,0,0,0,1.0,4,0,2,7,7,0,2,3,1,3,2017년 09월,37.68148920000001,127.05378259999999,노원구,10.0,114.0,11.4
262,새삼선유치원,기독교대한감리회유지재단,김현주,2001-09-01,사립(법인),2001-03-01,서울특별시교육청 / 성북강북교육지원청,02-745-9415,등록된 홈페이지가 없습니다.,09 : 00 ~ 20 : 00,서울특별시 성북구 성북로4길 21,['방과후과정'],1,1,1,0,0,0,0,12.0,28.0,29.0,0.0,0.0,0.0,0.0,1,1,0.0,0.0,4.0,0,0,0,0.0,0,0,1,3,3,2,2,0,0,1,2014년 09월,37.590043,127.0061388,성북구,4.0,69.0,17.25
263,새샛별유치원,허선자,허선자,1985-01-14,사립(사인),1985-01-14,서울특별시교육청 / 동부교육지원청,02-433-3668,http://cafe.daum.net/star433-3668,09 : 00 ~ 20 : 00,서울특별시 중랑구 망우로 458,['방과후과정'],1,1,1,0,0,0,0,15.0,27.0,30.0,0.0,0.0,0.0,0.0,1,0,0.0,0.0,6.0,0,0,0,3.0,2,0,2,4,4,3,1,0,0,2,2016년 11월,37.599955200000004,127.1027297,중랑구,9.0,72.0,8.0
264,새서울유치원,이상옥,이상옥,1987-11-01,사립(사인),1987-11-01,서울특별시교육청 / 강서양천교육지원청,02-2646-1100,http://www.새서울유치원.com,09 : 00 ~ 20 : 00,서울특별시 양천구 목동서로 340,['방과후과정'],2,2,2,0,0,0,0,38.0,52.0,70.0,0.0,0.0,0.0,0.0,1,0,0.0,0.0,9.0,0,0,0,0.0,1,0,3,6,6,7,1,0,0,1,2015년 10월,37.518809000000005,126.86360990000001,양천구,9.0,160.0,17.77777777777778
265,새성민유치원,한홍신,주연순,1983-02-28,사립(사인),1983-03-02,서울특별시교육청 / 강남서초교육지원청,02-582-1871,등록된 홈페이지가 없습니다.,09 : 00 ~ 18 : 00,서울특별시 서초구 효령로 110,['방과후과정'],1,1,1,0,0,0,0,19.0,35.0,26.0,0.0,0.0,0.0,0.0,1,0,0.0,1.0,6.0,0,0,0,0.0,0,0,0,6,6,4,1,2,0,1,2016년 10월,37.48064919999999,126.99611909999999,서초구,7.0,80.0,11.428571428571429
266,새소리유치원,이현란,이현란,1991-01-10,사립(사인),1991-01-11,서울특별시교육청 / 동부교육지원청,02-2214-0011,등록된 홈페이지가 없습니다.,09 : 00 ~ 18 : 00,서울특별시 동대문구 사가정로 148,['방과후과정'],2,3,3,0,0,0,0,60.0,80.0,78.0,0.0,0.0,0.0,0.0,1,0,0.0,0.0,13.0,0,0,0,0.0,0,0,2,11,11,4,4,3,0,2,2017년 10월,37.5764921,127.06045859999999,동대문구,13.0,218.0,16.76923076923077
267,새소슬유치원,박병득,조명옥,2001-06-20,사립(사인),2001-07-02,서울특별시교육청 / 동작관악교육지원청,02-6671-6001,http://www.sosl.kg.kr,09 : 00 ~ 19 : 30,서울특별시 관악구 성현로 80,['방과후과정'],1,2,2,0,0,0,0,20.0,45.0,55.0,0.0,0.0,0.0,0.0,1,1,0.0,0.0,8.0,0,0,0,0.0,6,0,1,7,7,0,2,2,4,0,2014년 10월,37.4897544,126.95050659999998,관악구,8.0,120.0,15.0
268,새순유치원,차종율,이명수,1981-11-04,사립(사인),1981-11-04,서울특별시교육청 / 강남서초교육지원청,02-532-8901,http://saesoon.kidis.co.kr/index.php,09 : 00 ~ 20 : 00,서울특별시 서초구 서초대로15길 57,['방과후과정'],1,1,2,0,0,0,0,18.0,21.0,31.0,0.0,0.0,0.0,0.0,1,0,0.0,0.0,6.0,0,0,0,0.0,0,0,1,5,5,1,2,1,1,1,2016년 11월,37.488950700000004,126.9884182,서초구,6.0,70.0,11.666666666666666
269,새시대유치원,이종희,이희숙,1984-02-24,사립(사인),1984-02-24,서울특별시교육청 / 성북강북교육지원청,02-905-0287,http://cafe.daum.net/saesidaekids,09 : 00 ~ 20 : 00,서울특별시 강북구 도봉로97길 45,"['방과후과정', '온종일돌봄']",0,0,1,1,0,0,0,0.0,0.0,24.0,25.0,0.0,0.0,0.0,1,1,0.0,0.0,3.0,0,0,0,0.0,2,0,0,3,3,2,1,0,0,1,2016년 09월,37.6426928,127.0269805,강북구,3.0,49.0,16.333333333333332
270,새싹유치원,조윤래,조옥래,1986-05-23,사립(사인),1986-06-01,서울특별시교육청 / 서부교육지원청,02-324-9148,http://saessak.happyihome.com,09 : 00 ~ 19 : 30,서울특별시 마포구 월드컵북로5길 53,['방과후과정'],1,1,2,0,0,0,0,24.0,29.0,41.0,0.0,0.0,0.0,0.0,1,0,0.0,1.0,6.0,0,0,0,0.0,1,0,2,4,4,0,2,3,1,1,2016년 10월,37.556044299999996,126.9161412,마포구,7.0,94.0,13.428571428571429
271,새싹유치원,이인호,허미애,1993-12-03,사립(사인),1993-12-03,서울특별시교육청 / 동작관악교육지원청,02-584-6135,http://sskinder.kidis.co.kr,07 : 30 ~ 19 : 00,서울특별시 관악구 남현2길 90,['방과후과정'],1,1,1,0,0,0,0,25.0,25.0,27.0,0.0,0.0,0.0,0.0,1,0,0.0,0.0,6.0,0,0,0,1.0,3,0,1,5,5,0,2,2,1,1,2015년 10월,37.474565399999996,126.97284750000001,관악구,7.0,77.0,11.0
272,새싹유치원,신화식,신화식,2015-11-25,사립(사인),2016-03-02,서울특별시교육청 / 강서양천교육지원청,02-26511322,http://www.saessakkids.co.kr/,09 : 00 ~ 19 : 00,서울특별시 강서구 곰달래로49길 10,['방과후과정'],1,1,2,0,0,0,0,12.0,21.0,36.0,0.0,0.0,0.0,0.0,1,1,0.0,0.0,6.0,0,0,0,0.0,4,0,0,6,6,5,1,0,0,0,2016년 10월,37.5321742,126.85802609999999,강서구,6.0,69.0,11.5
273,새싹유치원,학교법인은실학원,유청옥,1964-10-07,사립(법인),1964-10-07,서울특별시교육청 / 성북강북교육지원청,02-914-6529,http://www.saessakid.co.kr,09 : 20 ~ 19 : 00,서울특별시 성북구 정릉로 282,['방과후과정'],2,2,2,0,0,0,0,38.0,46.0,49.0,0.0,0.0,0.0,0.0,1,1,0.0,0.0,8.0,0,0,0,0.0,1,0,2,6,6,3,1,3,1,1,2015년 09월,37.60304420000001,127.0145412,성북구,8.0,133.0,16.625
275,새아랑유치원,황규철,이화봉,1996-08-27,사립(사인),1996-08-27,서울특별시교육청 / 동부교육지원청,02-3421-8411,등록된 홈페이지가 없습니다.,08 : 50 ~ 20 : 00,서울특별시 중랑구 신내로 151,['방과후과정'],3,3,3,0,0,0,0,71.0,70.0,82.0,0.0,0.0,0.0,0.0,1,1,0.0,0.0,16.0,0,0,1,0.0,9,0,4,12,12,6,5,4,0,2,2016년 09월,37.6083906,127.0954925,중랑구,16.0,223.0,13.9375
276,새움유치원,정애영,최성희,2013-03-01,사립(사인),2013-11-11,서울특별시교육청 / 강동송파교육지원청,02-430-4399,등록된 홈페이지가 없습니다.,09 : 00 ~ 19 : 00,서울특별시 송파구 중대로27길 2,['방과후과정'],2,1,2,0,0,0,0,35.0,22.0,39.0,0.0,0.0,0.0,0.0,1,0,0.0,0.0,10.0,0,0,0,0.0,0,0,1,9,9,1,2,2,3,2,2014년 10월,37.5034888,127.1285618,송파구,10.0,96.0,9.6
277,새일문유치원,민영재,심옥자,1984-11-03,사립(사인),1984-11-04,서울특별시교육청 / 동부교육지원청,02-2212-6229,http://cafe.naver.com/saeilmoon,09 : 00 ~ 19 : 00,서울특별시 동대문구 장한로 165,['방과후과정'],0,0,1,1,0,0,0,0.0,0.0,27.0,32.0,0.0,0.0,0.0,1,0,0.0,0.0,4.0,0,0,0,0.0,2,0,0,4,4,2,0,0,1,1,2016년 09월,37.5750974,127.0716385,동대문구,4.0,59.0,14.75
278,새현대유치원,정병천,이경자,1997-01-16,사립(사인),1997-01-16,서울특별시교육청 / 서부교육지원청,02-3273-3723,등록된 홈페이지가 없습니다.,09 : 00 ~ 19 : 30,서울특별시 마포구 새창로 52,['방과후과정'],0,0,0,1,0,0,0,0.0,0.0,0.0,7.0,0.0,0.0,0.0,1,0,0.0,0.0,2.0,0,0,0,0.0,1,0,1,1,1,1,1,0,0,0,2016년 09월,37.5395096,126.9540212,마포구,2.0,7.0,3.5
279,"새화곡유치원
                  
                  	(폐원)",-,-,1986-06-23,사립(사인),1986-06-23,서울특별시교육청 / 강서양천교육지원청,02-2065-1014,등록된 홈페이지가 없습니다.,-,서울특별시 강서구 강서로15길 40,['방과후과정'],0,0,0,0,0,0,0,0.0,0.0,0.0,0.0,0.0,0.0,0.0,1,0,0.0,0.0,4.0,0,0,0,1.0,0,0,0,5,5,-,-,-,-,-,2012년 10월,37.5323019,126.8438271,강서구,5.0,0.0,0.0
281,색동유치원,박인기,박인기,1986-12-10,사립(사인),1986-12-10,서울특별시교육청 / 서부교육지원청,02-353-5671,등록된 홈페이지가 없습니다.,08 : 30 ~ 20 : 00,서울특별시 은평구 갈현로 212-1,['방과후과정'],2,2,2,0,0,1,0,20.0,35.0,38.0,0.0,0.0,21.0,0.0,1,1,0.0,0.0,10.0,0,0,0,0.0,2,0,2,8,8,8,0,2,0,0,2014년 10월,37.61600920000001,126.9142383,은평구,10.0,114.0,11.4
282,색동유치원,양승노,유용희,1982-10-28,사립(사인),1983-03-03,서울특별시교육청 / 동부교육지원청,02-435-2714,등록된 홈페이지가 없습니다.,09 : 00 ~ 20 : 00,서울특별시 중랑구 동일로109길 31,['방과후과정'],1,1,1,0,0,0,0,15.0,28.0,29.0,0.0,0.0,0.0,0.0,1,0,0.0,0.0,5.0,0,0,0,0.0,0,0,0,5,5,2,0,2,1,0,2016년 10월,37.591641100000004,127.07838559999999,중랑구,5.0,72.0,14.4
283,샘터유치원,유재웅,김두임,1988-05-17,사립(사인),1988-05-17,서울특별시교육청 / 강서양천교육지원청,02-2691-1424,http://www.isaemter.co.kr,09 : 40 ~ 19 : 00,서울특별시 양천구 신월로 99,['방과후과정'],1,2,1,0,0,0,0,31.0,36.0,23.0,0.0,0.0,0.0,0.0,1,1,0.0,0.0,6.0,0,0,0,0.0,0,0,1,5,5,2,3,0,0,2,2016년 10월,37.5177974,126.83423090000001,양천구,6.0,90.0,15.0
284,샛별유치원,김혜윤,정정금,2013-12-04,사립(법인),2014-03-05,서울특별시교육청 / 동작관악교육지원청,02-3280-8993,http://cafe.daum.net/Stellar1004,09 : 00 ~ 17 : 00,서울특별시 동작구 상도로50길 36-1,['방과후과정'],3,3,2,0,0,0,0,50.0,73.0,50.0,0.0,0.0,0.0,0.0,1,0,0.0,1.0,10.0,0,0,0,0.0,8,0,1,10,10,1,4,1,5,0,2016년 11월,37.4984612,126.95063870000001,동작구,11.0,173.0,15.727272727272727
285,샛별유치원,최유정,배영규,1997-08-19,사립(사인),1997-09-01,서울특별시교육청 / 강동송파교육지원청,02-408-1073,등록된 홈페이지가 없습니다.,09 : 00 ~ 19 : 00,서울특별시 송파구 중대로9길 53-27,['방과후과정'],1,1,1,0,0,0,0,16.0,24.0,26.0,0.0,0.0,0.0,0.0,1,1,0.0,0.0,6.0,0,0,0,0.0,0,0,1,5,5,4,0,1,0,1,2016년 10월,37.49858,127.11874579999999,송파구,6.0,66.0,11.0
286,생명나무유치원,이구영,김혜숙,2009-04-21,사립(사인),2009-04-21,서울특별시교육청 / 강동송파교육지원청,02-408-2443,http://kk2443.hikid.org,09 : 00 ~ 19 : 00,서울특별시 송파구 송파대로8길 17,['방과후과정'],3,3,3,0,0,0,0,63.0,58.0,70.0,0.0,0.0,0.0,0.0,1,1,0.0,0.0,12.0,0,0,0,0.0,0,0,1,11,11,2,5,3,1,1,2014년 11월,37.47807,127.12880619999999,송파구,12.0,191.0,15.916666666666666
287,샬롬유치원,박민희,박민희,1991-02-28,사립(법인),1991-02-28,서울특별시교육청 / 성동광진교육지원청,02-456-7770,등록된 홈페이지가 없습니다.,09 : 30 ~ 19 : 00,서울특별시 광진구 아차산로65길 65,['방과후과정'],1,1,1,0,0,0,0,23.0,25.0,25.0,0.0,0.0,0.0,0.0,1,0,0.0,0.0,6.0,0,0,0,1.0,0,0,0,6,6,2,4,0,0,0,2015년 09월,37.5424205,127.09172679999999,광진구,7.0,73.0,10.428571428571429
288,서강유치원,김재영,최필승,1984-04-04,사립(사인),1984-04-04,서울특별시교육청 / 강서양천교육지원청,02-2664-7428,http://seokang.ddorongi.co.kr,09 : 00 ~ 19 : 30,서울특별시 강서구 금낭화로13길 47-9,['방과후과정'],2,2,2,0,0,0,0,44.0,45.0,41.0,0.0,0.0,0.0,0.0,1,0,0.0,0.0,9.0,0,0,0,0.0,1,0,2,7,7,3,2,1,1,2,2015년 09월,37.571228000000005,126.8083937,강서구,9.0,130.0,14.444444444444445
289,서문유치원,손달익,최희자,1989-03-01,사립(사인),1989-03-01,서울특별시교육청 / 서부교육지원청,02-309-7983,http://kids.seomoonch.org/,09 : 00 ~ 20 : 00,서울특별시 은평구 가좌로10길 10,['방과후과정'],0,0,1,0,0,0,0,0.0,0.0,30.0,0.0,0.0,0.0,0.0,1,0,0.0,2.0,0.0,0,0,0,0.0,0,0,0,2,2,0,2,0,0,0,2016년 09월,37.591550700000006,126.9167735,은평구,2.0,30.0,15.0
290,서안유치원,최위수,한수진,1995-02-13,사립(사인),1995-02-13,서울특별시교육청 / 동부교육지원청,02-6012-7979,등록된 홈페이지가 없습니다.,09 : 00 ~ 19 : 00,서울특별시 중랑구 동일로140길 15,['방과후과정'],1,1,1,0,0,0,0,14.0,20.0,25.0,0.0,0.0,0.0,0.0,1,0,0.0,1.0,4.0,0,0,0,0.0,1,0,1,4,4,1,1,1,1,1,2016년 11월,37.6043245,127.07993359999999,중랑구,5.0,59.0,11.8
292,서울가양초등학교병설유치원,문희숙,문희숙,2015-03-01,공립(병설),2015-03-01,서울특별시교육청 / 강서양천교육지원청,02-3662-8731,http://blog.naver.com/kayang2015,09 : 00 ~ 20 : 00,서울특별시 강서구 허준로 186,['방과후과정'],1,1,1,0,0,0,0,16.0,22.0,25.0,0.0,0.0,0.0,0.0,0,0,0.0,1.0,2.0,0,0,0,2.0,2,0,3,2,2,1,0,2,0,0,2017년 09월,37.5617187,126.85864369999999,강서구,5.0,63.0,12.6
293,서울가재울초등학교병설유치원,오종열,오종열,2016-03-02,공립(병설),2016-03-11,서울특별시교육청 / 서부교육지원청,02-300-8691,http://gajaeul.es.kr,09 : 00 ~ 20 : 00,서울특별시 서대문구 모래내로15길 61,"['방과후과정', '특수학급']",1,1,2,0,0,0,1,15.0,21.0,50.0,0.0,0.0,0.0,4.0,0,1,0.0,1.0,3.0,1,0,0,4.0,2,0,3,2,2,2,0,3,0,0,2016년 10월,37.574009100000005,126.91980120000001,서대문구,8.0,90.0,11.25
294,서울강남초등학교병설유치원,이병화,이병화,2013-12-23,공립(병설),2014-03-01,서울특별시교육청 / 동작관악교육지원청,02-824-0503,http://www.kangnam-se.es.kr,09 : 30 ~ 19 : 30,서울특별시 동작구 강남초등길 15,['방과후과정'],1,1,1,0,0,0,0,16.0,22.0,26.0,0.0,0.0,0.0,0.0,0,0,0.0,1.0,2.0,0,0,0,1.0,6,0,2,2,2,1,0,1,1,0,2018년 09월,37.50607979999999,126.9535841,동작구,4.0,64.0,16.0
295,"서울강덕초등학교병설유치원
                  
                  	
                	(휴원)",-,-,2000-11-25,공립(병설),2001-03-01,서울특별시교육청 / 강동송파교육지원청,02-427-7188,http://www.gangdeok.es.kr/,-,서울특별시 강동구 동남로82길 94-54,['방과후과정'],0,0,0,0,0,0,0,0.0,0.0,0.0,0.0,0.0,0.0,0.0,0,0,0.0,0.0,2.0,0,0,0,5.0,1,0,3,5,5,-,-,-,-,-,2014년 10월,37.558942200000004,127.1607706,강동구,7.0,0.0,0.0
296,서울강솔초등학교병설유치원,구태회,구태회,2017-06-01,공립(병설),2017-06-01,서울특별시교육청 / 강동송파교육지원청,02-2147-5200,http://www.gangsol.kg.kr,09 : 00 ~ 19 : 30,서울특별시 강동구 고덕로97길 80,"['방과후과정', '특수학급']",2,2,2,0,0,0,2,30.0,39.0,51.0,0.0,0.0,0.0,8.0,0,1,0.0,2.0,4.0,2,0,0,4.0,2,0,4,7,7,2,6,0,0,0,-,37.56223749999999,127.1801293,강동구,10.0,128.0,12.8
297,서울강신초등학교병설유치원,홍성화,홍성화,2013-09-01,공립(병설),2013-09-05,서울특별시교육청 / 강서양천교육지원청,02-2699-9916,http://www.kangsin.es.kr,09 : 00 ~ 20 : 00,서울특별시 양천구 월정로 280,['방과후과정'],1,1,1,0,0,0,0,16.0,22.0,26.0,0.0,0.0,0.0,0.0,0,0,0.0,1.0,2.0,0,0,0,4.0,2,0,2,4,4,1,0,0,2,0,2017년 09월,37.542879299999996,126.8295869,양천구,7.0,64.0,9.142857142857142
298,서울강월초등학교병설유치원,문상희,문상희,2017-03-02,공립(병설),2017-03-02,서울특별시교육청 / 강서양천교육지원청,02-2605-1702,http://gangwol.es.kr/,09 : 30 ~ 20 : 00,서울특별시 양천구 신월로 97,"['방과후과정', '아침돌봄']",1,1,1,0,0,0,0,13.0,19.0,26.0,0.0,0.0,0.0,0.0,0,0,0.0,1.0,2.0,0,0,0,4.0,2,0,1,6,6,1,2,0,0,0,-,37.515959499999994,126.83416229999999,양천구,7.0,58.0,8.285714285714286
299,서울개봉초등학교병설유치원,윤승원,윤승원,2000-02-15,공립(병설),2000-02-15,서울특별시교육청 / 남부교육지원청,02-2616-8755,http://www.seoulgaebong.es.kr,09 : 00 ~ 20 : 00,서울특별시 구로구 개봉로16길 30-11,"['방과후과정', '특수학급']",1,1,2,0,0,0,1,15.0,18.0,52.0,0.0,0.0,0.0,5.0,0,1,0.0,1.0,3.0,1,0,0,5.0,3,0,2,8,8,4,1,0,0,0,2017년 11월,37.4897388,126.8583705,구로구,9.0,90.0,10.0
300,서울개원초등학교병설유치원,박승란,박승란,2012-12-27,공립(병설),2013-03-01,서울특별시교육청 / 강남서초교육지원청,02-574-1231,http://www.gaewon.es.kr,09 : 00 ~ 20 : 00,서울특별시 강남구 선릉로 29,"['방과후과정', '아침돌봄']",1,1,1,0,0,0,0,10.0,11.0,14.0,0.0,0.0,0.0,0.0,0,0,0.0,1.0,2.0,0,0,0,4.0,2,0,3,4,4,0,0,0,3,0,2017년 10월,37.4812767,127.05865700000001,강남구,7.0,35.0,5.0
301,"서울개포유치원
                  
                  	
                	(휴원)",백정희,백정희,1997-01-15,공립(단설),2005-05-12,서울특별시교육청 / 강남서초교육지원청,02-445-8325,http://www.kaepokid.com,09 : 00 ~ 20 : 00,서울특별시 강남구 영동대로3길 45,"['방과후과정', '특수학급']",0,1,2,0,0,0,1,0.0,8.0,18.0,0.0,0.0,0.0,2.0,1,1,0.0,1.0,2.0,1,0,0,2.0,3,0,2,4,4,0,1,1,1,1,2014년 10월,37.486627399999996,127.0709874,강남구,5.0,28.0,5.6
302,서울개화초등학교병설유치원,김정규,김정규,2018-03-01,공립(병설),2018-03-01,서울특별시교육청 / 강서양천교육지원청,02-2661-0493,등록된 홈페이지가 없습니다.,09 : 30 ~ 20 : 00,서울특별시 강서구 양천로 11,"['방과후과정', '아침돌봄']",1,1,1,0,0,0,0,16.0,15.0,19.0,0.0,0.0,0.0,0.0,0,0,0.0,1.0,2.0,0,0,0,0.0,5,0,1,2,2,3,0,0,0,0,-,37.5740444,126.80923100000001,강서구,3.0,50.0,16.666666666666668
303,서울거여초등학교병설유치원,강연실,강연실,1985-03-05,공립(병설),1985-03-05,서울특별시교육청 / 강동송파교육지원청,02-400-9451,http://www.geoyeo.kg.kr,09 : 00 ~ 20 : 00,서울특별시 송파구 마천로25길 18,"['방과후과정', '특수학급']",1,2,2,0,0,0,1,15.0,29.0,44.0,0.0,0.0,0.0,5.0,0,1,0.0,2.0,3.0,0,0,0,5.0,2,0,3,7,7,2,2,1,0,0,2018년 10월,37.5047528,127.1410936,송파구,10.0,93.0,9.3
304,서울거원초등학교병설유치원,함혜성,함혜성,2017-07-13,공립(병설),2017-09-08,서울특별시교육청 / 강동송파교육지원청,02-740-6500,등록된 홈페이지가 없습니다.,09 : 00 ~ 20 : 00,서울특별시 송파구 양산로2길 26,"['방과후과정', '특수학급']",0,1,1,0,0,0,1,0.0,21.0,22.0,0.0,0.0,0.0,4.0,0,0,0.0,1.0,1.0,1,0,0,0.0,6,0,1,2,2,3,0,0,0,0,-,37.4878179,127.14475790000002,송파구,2.0,47.0,23.5
305,서울경동유치원,고문영,고문영,2007-11-01,공립(단설),2008-03-12,서울특별시교육청 / 성동광진교육지원청,02-461-0337,http://www.skd.kg.kr/,09 : 00 ~ 20 : 00,서울특별시 성동구 성수일로 34,"['방과후과정', '특수학급']",1,2,2,0,0,0,1,16.0,44.0,52.0,0.0,0.0,0.0,5.0,1,1,0.0,2.0,2.0,1,0,0,7.0,12,0,3,9,9,2,1,0,2,0,2017년 09월,37.54367939999999,127.0502832,성동구,11.0,117.0,10.636363636363637
306,서울경수초등학교병설유치원,문양열,문양열,2004-03-01,공립(병설),2004-03-01,서울특별시교육청 / 성동광진교육지원청,02-465-9547,http://www.kyeongsu.es.kr/,09 : 00 ~ 20 : 00,서울특별시 성동구 뚝섬로13길 22,['방과후과정'],1,1,1,0,0,0,0,15.0,18.0,24.0,0.0,0.0,0.0,0.0,0,0,0.0,1.0,2.0,0,0,0,5.0,2,0,3,3,3,1,0,1,1,0,2017년 10월,37.53978130000001,127.0583587,성동구,8.0,57.0,7.125
307,서울경인유치원,김기경,김기경,2005-09-30,공립(단설),2005-09-30,서울특별시교육청 / 강서양천교육지원청,02-2646-4906,http://www.서울경인유치원.com,09 : 00 ~ 20 : 00,서울특별시 양천구 안양천로 1009,"['방과후과정', '특수학급']",1,2,2,0,0,0,1,16.0,40.0,51.0,0.0,0.0,0.0,5.0,1,1,0.0,2.0,3.0,1,0,0,8.0,6,0,3,8,8,3,1,2,0,0,2017년 09월,37.5328933,126.88633490000002,양천구,13.0,112.0,8.615384615384615
308,서울경일초등학교병설유치원,이정애,이정애,2017-03-01,공립(병설),2017-03-01,서울특별시교육청 / 성동광진교육지원청,02-499-5273,http://www.kyongil.es.kr,09 : 00 ~ 20 : 00,서울특별시 성동구 뚝섬로 332,"['방과후과정', '아침돌봄']",1,1,1,0,0,0,0,16.0,19.0,25.0,0.0,0.0,0.0,0.0,0,0,0.0,1.0,2.0,0,0,0,4.0,2,0,1,6,6,1,2,0,0,0,-,37.5403883,127.0468669,성동구,7.0,60.0,8.571428571428571
309,서울고명초등학교병설유치원,한진학,한진학,1994-10-10,공립(병설),1995-03-09,서울특별시교육청 / 강동송파교육지원청,02-3426-4133,http://www.gomyung.es.kr/index/index.do,09 : 00 ~ 20 : 00,서울특별시 강동구 고덕로46길 53,['방과후과정'],1,1,1,0,0,0,0,16.0,22.0,26.0,0.0,0.0,0.0,0.0,0,0,0.0,1.0,2.0,0,0,0,2.0,2,0,3,1,1,0,0,1,2,0,2017년 09월,37.553032200000004,127.14681999999999,강동구,5.0,64.0,12.8
310,서울고척초등학교병설유치원,김양중,김양중,1994-05-04,공립(병설),1994-09-01,서울특별시교육청 / 남부교육지원청,02-2612-8307,http://www.gocheok.kg.kr,09 : 00 ~ 20 : 00,서울특별시 구로구 경서로 31,['방과후과정'],1,2,2,0,0,0,0,16.0,44.0,50.0,0.0,0.0,0.0,0.0,0,1,0.0,1.0,4.0,0,0,0,4.0,1,0,2,6,6,3,1,0,1,0,2017년 09월,37.5006668,126.8569941,구로구,9.0,110.0,12.222222222222221
311,서울공덕초등학교병설유치원,최규애,최규애,1986-03-03,공립(병설),1986-04-11,서울특별시교육청 / 서부교육지원청,02-712-5928,http://www.kongduck.es.kr,09 : 00 ~ 20 : 00,서울특별시 마포구 만리재옛길 13,"['방과후과정', '아침돌봄']",1,1,1,0,0,0,0,16.0,22.0,25.0,0.0,0.0,0.0,0.0,0,0,0.0,1.0,2.0,0,0,0,2.0,2,0,4,0,0,1,1,0,1,0,2015년 09월,37.545700200000006,126.95377859999998,마포구,5.0,63.0,12.6
312,서울공릉초등학교병설유치원,김영임,김영임,2001-12-31,공립(병설),2002-03-01,서울특별시교육청 / 북부교육지원청,02-973-3074,http://gongrung.es.kr,09 : 00 ~ 19 : 40,서울특별시 노원구 동일로173길 12,['방과후과정'],1,1,1,0,0,0,0,16.0,19.0,26.0,0.0,0.0,0.0,0.0,0,0,0.0,1.0,2.0,0,0,0,4.0,2,0,2,4,4,0,0,1,2,0,2015년 09월,37.6188016,127.0741878,노원구,7.0,61.0,8.714285714285714
313,서울공진초등학교병설유치원,이봉학,이봉학,2004-03-01,공립(병설),2004-03-01,서울특별시교육청 / 강서양천교육지원청,02-2223-2391,http://www.kongjin.es.kr,09 : 30 ~ 20 : 00,서울특별시 강서구 마곡서로 33,['방과후과정'],1,1,1,0,0,0,0,16.0,22.0,26.0,0.0,0.0,0.0,0.0,0,0,0.0,1.0,2.0,0,0,0,4.0,2,0,2,5,5,1,0,2,0,0,2017년 11월,37.5578391,126.8228396,강서구,7.0,64.0,9.142857142857142
314,서울공항초등학교병설유치원,권기옥,권기옥,1992-01-20,공립(병설),1992-01-20,서울특별시교육청 / 강서양천교육지원청,02-2661-4560,http://www.konghang.es.kr,09 : 30 ~ 20 : 00,서울특별시 강서구 마곡서1로 68,"['방과후과정', '특수학급', '아침돌봄']",1,2,1,0,0,0,1,16.0,42.0,24.0,0.0,0.0,0.0,4.0,0,1,0.0,1.0,3.0,1,0,0,4.0,2,0,3,6,6,2,1,0,2,0,2017년 10월,37.56320039999999,126.8215639,강서구,8.0,86.0,10.75
315,서울관악초등학교병설유치원,이경희,이경희,2000-01-15,공립(병설),2000-04-11,서울특별시교육청 / 동작관악교육지원청,02-883-0932,http://www.seoul-kwanak.es.kr/index/index.do,09 : 00 ~ 20 : 00,서울특별시 관악구 청룡4길 49,['방과후과정'],1,1,1,0,0,0,0,16.0,22.0,25.0,0.0,0.0,0.0,0.0,0,0,0.0,1.0,2.0,0,0,0,5.0,2,0,3,3,3,0,0,1,2,0,2015년 09월,37.4808067,126.9428902,관악구,8.0,63.0,7.875
316,서울광희초등학교병설유치원,나수연,나수연,2016-10-31,공립(병설),2017-03-01,서울특별시교육청 / 중부교육지원청,070-5090-7180,http://www.gwanghee.es.kr/index.do,09 : 00 ~ 20 : 00,서울특별시 중구 다산로 269,['방과후과정'],1,1,1,0,0,0,0,4.0,13.0,16.0,0.0,0.0,0.0,0.0,0,0,0.0,1.0,2.0,0,0,0,0.0,4,0,1,2,2,1,2,0,0,0,2017년 10월,37.5674432,127.0151689,중구,3.0,33.0,11.0
317,서울구로남초등학교병설유치원,박해상,박해상,2013-02-22,공립(병설),2013-05-16,서울특별시교육청 / 남부교육지원청,02-853-5025,등록된 홈페이지가 없습니다.,09 : 30 ~ 20 : 00,서울특별시 구로구 디지털로27길 76,"['방과후과정', '아침돌봄']",1,1,1,0,0,0,0,13.0,21.0,24.0,0.0,0.0,0.0,0.0,0,0,0.0,1.0,2.0,0,0,0,4.0,2,0,2,4,4,1,1,0,1,0,2017년 09월,37.4848279,126.89059579999999,구로구,7.0,58.0,8.285714285714286
318,서울구의초등학교병설유치원,김원곤,김원곤,1997-03-02,공립(병설),1997-03-02,서울특별시교육청 / 성동광진교육지원청,02-453-2123,http://www.guui.es.kr,09 : 00 ~ 20 : 00,서울특별시 광진구 광나루로30길 49,"['방과후과정', '특수학급']",1,1,1,0,0,0,1,13.0,22.0,23.0,0.0,0.0,0.0,6.0,0,1,0.0,1.0,2.0,1,0,0,4.0,3,0,2,5,5,1,1,1,0,1,2017년 09월,37.5429178,127.0799578,광진구,7.0,64.0,9.142857142857142
319,서울구일초등학교병설유치원,박승수,박승수,2013-12-26,공립(병설),2014-07-03,서울특별시교육청 / 남부교육지원청,070-7129-2327,http://www.guil.es.kr,09 : 00 ~ 20 : 00,서울특별시 구로구 구일로 68,['방과후과정'],0,0,2,0,0,0,0,0.0,0.0,44.0,0.0,0.0,0.0,0.0,0,0,0.0,0.0,2.0,0,0,0,2.0,2,0,2,2,2,0,0,0,2,0,2015년 10월,37.4927953,126.87292749999999,구로구,4.0,44.0,11.0
320,서울구현초등학교병설유치원,지선득,지선득,2009-04-27,공립(병설),2009-04-27,서울특별시교육청 / 서부교육지원청,02-357-6215,http://www.guhyun.es.kr/,09 : 00 ~ 19 : 30,서울특별시 은평구 갈현로15길 51,['방과후과정'],0,1,1,0,0,0,0,0.0,22.0,24.0,0.0,0.0,0.0,0.0,0,0,0.0,0.0,2.0,0,0,0,2.0,2,0,1,2,2,1,0,1,0,0,2015년 10월,37.609222700000004,126.90584820000001,은평구,4.0,46.0,11.5
321,서울국악유치원,김진희,김진희,1999-03-05,사립(법인),1999-03-05,서울특별시교육청 / 남부교육지원청,02-896-2093,http://www.seoulkugak.com,09 : 00 ~ 19 : 00,서울특별시 금천구 시흥대로38길 62,['방과후과정'],2,2,2,0,0,0,0,40.0,43.0,43.0,0.0,0.0,0.0,0.0,1,0,0.0,0.0,9.0,0,0,1,0.0,1,0,1,8,8,0,3,4,1,2,2018년 09월,37.4462133,126.9064094,금천구,9.0,126.0,14.0
322,서울군자초등학교병설유치원,나용주,나용주,2007-03-01,공립(병설),2007-05-22,서울특별시교육청 / 동부교육지원청,02-2212-8456,http://www.kunja.kg.kr/,09 : 00 ~ 20 : 00,서울특별시 동대문구 한천로6길 21,['방과후과정'],2,2,1,0,0,0,0,25.0,28.0,22.0,0.0,0.0,0.0,0.0,0,1,0.0,1.0,4.0,0,0,0,4.0,1,0,2,7,7,2,0,2,1,0,2015년 10월,37.5643765,127.06134650000001,동대문구,9.0,75.0,8.333333333333334
323,서울금나래초등학교병설유치원,전윤선,전윤선,2017-03-01,공립(병설),2017-04-10,서울특별시교육청 / 남부교육지원청,02-807-9995,http://www.geumnarae.es.kr/index.do,09 : 00 ~ 20 : 00,서울특별시 금천구 시흥대로79길 37,"['방과후과정', '특수학급']",1,1,1,0,0,0,1,15.0,21.0,23.0,0.0,0.0,0.0,5.0,0,0,0.0,1.0,2.0,1,0,0,2.0,3,0,4,2,2,1,3,0,0,0,-,37.45877,126.89739879999999,금천구,5.0,64.0,12.8
324,서울금호초등학교병설유치원,김혜경,김혜경,2018-03-01,공립(병설),2018-03-01,서울특별시교육청 / 성동광진교육지원청,02-6491-3200,http://www.geumho.es.kr/,09 : 00 ~ 20 : 00,서울특별시 성동구 무수막길 69,"['방과후과정', '특수학급']",1,1,1,0,0,0,1,13.0,14.0,18.0,0.0,0.0,0.0,2.0,0,1,0.0,1.0,2.0,1,0,0,2.0,3,0,0,6,6,4,0,0,0,0,-,37.552203600000006,127.02032759999999,성동구,5.0,47.0,9.4
325,서울금화초등학교병설유치원,김수경,김수경,2000-03-01,공립(병설),2000-04-01,서울특별시교육청 / 서부교육지원청,02-364-1446,http://www.geumhwa.es.kr,09 : 00 ~ 19 : 30,서울특별시 서대문구 통일로 165,"['방과후과정', '온종일돌봄']",1,1,1,0,0,0,0,13.0,22.0,26.0,0.0,0.0,0.0,0.0,0,0,0.0,1.0,2.0,0,0,0,2.0,2,0,1,3,3,0,1,1,1,0,2015년 09월,37.5683284,126.9630251,서대문구,5.0,61.0,12.2
326,서울길동초등학교병설유치원,박찬미,박찬미,1994-08-05,공립(병설),1994-09-07,서울특별시교육청 / 강동송파교육지원청,02-474-3956,http://www.gildong.es.kr,09 : 30 ~ 20 : 00,서울특별시 강동구 양재대로116길 69,['방과후과정'],1,1,2,0,0,0,0,16.0,22.0,43.0,0.0,0.0,0.0,0.0,0,1,0.0,1.0,3.0,0,0,0,5.0,1,0,4,4,4,1,1,0,0,2,2017년 10월,37.5383348,127.144282,강동구,9.0,81.0,9.0
327,서울길원초등학교병설유치원,김희영,김희영,2007-01-04,공립(병설),2007-05-17,서울특별시교육청 / 성북강북교육지원청,070-7491-5670,http://www.gilwon.es.kr,09 : 00 ~ 20 : 00,서울특별시 성북구 서경로8길 28-15,['방과후과정'],0,1,2,0,0,0,0,0.0,22.0,42.0,0.0,0.0,0.0,0.0,0,0,0.0,1.0,2.0,0,0,0,4.0,2,0,1,2,2,0,1,0,2,0,2017년 10월,37.608901200000005,127.01673590000001,성북구,7.0,64.0,9.142857142857142
328,서울길음유치원,한혜일,한혜일,2005-10-05,공립(단설),2005-10-05,서울특별시교육청 / 성북강북교육지원청,02-918-9931,http://www.gileum.net,09 : 30 ~ 20 : 00,서울특별시 성북구 길음로 142,['방과후과정'],2,2,2,0,0,0,0,32.0,44.0,52.0,0.0,0.0,0.0,0.0,1,1,0.0,2.0,4.0,0,0,0,7.0,7,0,5,7,7,2,1,1,2,0,2017년 09월,37.613887299999995,127.01702820000001,성북구,13.0,128.0,9.846153846153847
329,서울난곡초등학교병설유치원,김연숙,김연숙,1996-01-15,공립(병설),1996-03-01,서울특별시교육청 / 동작관악교육지원청,02-853-9871,등록된 홈페이지가 없습니다.,09 : 30 ~ 20 : 00,서울특별시 관악구 난곡로35길 102,['방과후과정'],1,1,1,0,0,0,0,16.0,18.0,26.0,0.0,0.0,0.0,0.0,0,0,0.0,1.0,2.0,0,0,0,5.0,3,0,1,7,7,1,0,1,1,0,2017년 10월,37.4692357,126.91665309999999,관악구,8.0,60.0,7.5
330,서울남부초등학교병설유치원,윤민재,윤민재,2017-12-01,공립(병설),2018-03-01,서울특별시교육청 / 동작관악교육지원청,02-857-5033,등록된 홈페이지가 없습니다.,09 : 30 ~ 19 : 30,서울특별시 관악구 남부순환로163길 14,"['방과후과정', '특수학급']",1,1,1,0,0,0,1,15.0,17.0,21.0,0.0,0.0,0.0,3.0,0,1,0.0,1.0,2.0,1,0,0,2.0,3,0,2,4,4,4,0,0,0,0,-,37.48504129999999,126.9221169,관악구,5.0,56.0,11.2
331,서울남성초등학교병설유치원,조영철,조영철,2013-03-01,공립(병설),2013-03-01,서울특별시교육청 / 동작관악교육지원청,595-3991,등록된 홈페이지가 없습니다.,09 : 30 ~ 20 : 00,서울특별시 동작구 사당로23길 57-14,['방과후과정'],1,1,2,0,0,0,0,16.0,22.0,42.0,0.0,0.0,0.0,0.0,0,1,0.0,1.0,3.0,0,0,0,4.0,2,0,2,5,5,2,1,0,1,0,2017년 09월,37.4844848,126.9758314,동작구,8.0,80.0,10.0
332,서울남유치원,김영휘,박미진,1981-03-03,사립(사인),1981-03-03,서울특별시교육청 / 남부교육지원청,02-865-0137,등록된 홈페이지가 없습니다.,09 : 00 ~ 17 : 00,서울특별시 구로구 구로동로17길 37-4,['방과후과정'],2,2,1,0,0,0,0,33.0,51.0,28.0,0.0,0.0,0.0,0.0,1,1,0.0,0.0,8.0,0,0,0,0.0,0,0,2,6,6,1,4,1,1,1,2016년 11월,37.48800810000001,126.8818453,구로구,8.0,112.0,14.0
333,서울남정초등학교병설유치원,김애경,김애경,1997-01-15,공립(병설),1997-01-15,서울특별시교육청 / 중부교육지원청,02-3273-6510,http://www.seoui-nj.es.kr,09 : 00 ~ 20 : 00,서울특별시 용산구 원효로64길 17-10,['방과후과정'],1,1,1,0,0,0,0,16.0,21.0,26.0,0.0,0.0,0.0,0.0,0,0,0.0,1.0,3.0,0,0,0,4.0,2,0,2,5,5,1,0,0,3,0,2017년 11월,37.5360588,126.96498829999999,용산구,8.0,63.0,7.875
334,서울남천초등학교병설유치원,이정우,이정우,2013-03-01,공립(병설),2013-05-22,서울특별시교육청 / 강동송파교육지원청,02-3401-0687,http://s-namcheon.es.kr,09 : 00 ~ 20 : 00,서울특별시 송파구 성내천로 207,['방과후과정'],0,1,1,0,0,0,0,0.0,8.0,14.0,0.0,0.0,0.0,0.0,0,0,0.0,0.0,2.0,0,0,0,3.0,2,0,1,4,4,1,0,0,1,0,2017년 11월,37.5011739,127.15057150000001,송파구,5.0,22.0,4.4
335,서울내발산초등학교병설유치원,홍길선,홍길선,1995-04-11,공립(병설),1995-04-11,서울특별시교육청 / 강서양천교육지원청,02-3662-7670,http://www.nbs.es.kr,09 : 30 ~ 20 : 00,서울특별시 강서구 강서로46길 23,['방과후과정'],1,1,1,0,0,0,0,16.0,22.0,26.0,0.0,0.0,0.0,0.0,0,0,0.0,1.0,2.0,0,0,0,4.0,2,0,2,5,5,1,0,0,0,2,2017년 10월,37.551248,126.83770049999998,강서구,7.0,64.0,9.142857142857142
